ID,CIDADE,UF,populacao,idosos,pib,latitude,longitude,poupanca,ind,valor
1100015,Alta Floresta D'Oeste,RO,24369,2028,262077,-11.9283,-61.9953,7599518,8.3,632436.0
1100023,Ariquemes,RO,90140,6147,1364694,-9.90571,-63.0325,16842130,6.8,1148531.0
1100049,Cacoal,RO,78461,6222,1186494,-11.4343,-61.4562,12692040,7.9,1006486.0
1100056,Cerejeiras,RO,16989,1651,222021,-13.187,-60.8168,7374710,9.7,716678.0
1100064,Colorado do Oeste,RO,18562,1997,193093,-13.1174,-60.5454,7989033,10.8,859503.0
1100080,Costa Marques,RO,13419,805,107583,-12.4367,-64.228,3430634,6.0,205802.0
1100098,Espigão D'Oeste,RO,28720,2314,311788,-11.5266,-61.0252,6213797,8.1,500652.0
1100106,Guajará-Mirim,RO,40318,2873,598167,-10.7889,-65.3296,6451017,7.1,459690.0
1100114,Jaru,RO,51894,4094,797296,-10.4318,-62.4788,15564477,7.9,1227906.0
1100122,Ji-Paraná,RO,116373,8477,1855359,-10.8777,-61.9322,19701025,7.3,1435089.0
1100130,Machadinho D'Oeste,RO,31125,2023,272201,-9.44363,-61.9818,10074259,6.5,654786.0
1100148,Nova Brasilândia D'Oeste,RO,19823,1662,173651,-11.7247,-62.3127,7889169,8.4,661444.0
1100155,Ouro Preto do Oeste,RO,37805,3207,477501,-10.7167,-62.2565,11175301,8.5,948001.0
1100189,Pimenta Bueno,RO,33796,2622,540862,-11.672,-61.198,9009150,7.8,698958.0
1100205,Porto Velho,RO,427356,24264,9093824,-8.76077,-63.8999,74100873,5.7,4207227.0
1100254,Presidente Médici,RO,22308,2194,235589,-11.169,-61.8986,7494419,9.8,737079.0
1100288,Rolim de Moura,RO,50537,4301,627848,-11.7271,-61.7714,9342063,8.5,795065.0
1100296,Santa Luzia D'Oeste,RO,8874,883,98818,-11.9074,-61.7777,3071522,10.0,305629.0
1100304,Vilhena,RO,76025,5367,1447187,-12.7502,-60.1488,9375862,7.1,661891.0
1100320,São Miguel do Guaporé,RO,21818,1460,324476,-11.6953,-62.7192,5746516,6.7,384541.0
1100338,Nova Mamoré,RO,22397,1289,218431,-10.4077,-65.3346,12270958,5.8,706222.0
1100346,Alvorada D'Oeste,RO,16825,1463,160689,-11.3463,-62.2847,6633453,8.7,576805.0
1100403,Alto Paraíso,RO,17122,1290,152235,-9.71429,-63.3188,4890846,7.5,368484.0
1100452,Buritis,RO,32299,1903,336265,-10.1943,-63.8324,4384828,5.9,258346.0
1100502,Novo Horizonte do Oeste,RO,10224,986,95420,-11.6961,-61.9951,4487590,9.6,432782.0
1100601,Cacaulândia,RO,5728,497,76701,-10.349,-62.9043,1957610,8.7,169855.0
1101203,Ministro Andreazza,RO,10352,889,99692,-11.196,-61.5174,3361210,8.6,288651.0
1101302,Mirante da Serra,RO,11863,1112,114869,-11.029,-62.6696,8477413,9.4,794646.0
1101401,Monte Negro,RO,14080,1098,143417,-10.2458,-63.29,6060647,7.8,472627.0
1101492,São Francisco do Guaporé,RO,15987,1060,173610,-12.052,-63.568,2346253,6.6,155566.0
1101500,Seringueiras,RO,11614,736,117281,-11.8055,-63.0182,3052751,6.3,193458.0
1101708,Urupá,RO,12945,1208,121359,-11.1261,-62.3639,3417953,9.3,318956.0
1200013,Acrelândia,AC,12517,775,121915,-9.82581,-66.8972,3782212,6.2,234179.0
1200054,Assis Brasil,AC,6000,401,42017,-10.9298,-69.5738,785904,6.7,52525.0
1200104,Brasiléia,AC,21251,1566,190699,-10.995,-68.7497,4069888,7.4,299913.0
1200203,Cruzeiro do Sul,AC,78412,4989,771040,-7.62762,-72.6756,13116654,6.4,834553.0
1200252,Epitaciolândia,AC,14836,1093,144997,-11.0188,-68.7341,5207686,7.4,383661.0
1200302,Feijó,AC,32412,1951,200521,-8.17054,-70.351,1781004,6.0,107205.0
1200336,Mâncio Lima,AC,15177,902,95419,-7.61657,-72.8997,1850723,5.9,109992.0
1200385,Plácido de Castro,AC,17167,1331,132633,-10.2806,-67.1371,2546189,7.8,197412.0
1200401,Rio Branco,AC,335383,22050,5125851,-9.97499,-67.8243,65581358,6.6,4311694.0
1200450,Senador Guiomard,AC,20126,1637,184620,-10.1497,-67.7362,4040610,8.1,328653.0
1200500,Sena Madureira,AC,38017,2552,264528,-9.06596,-68.6571,3884112,6.7,260732.0
1200609,Tarauacá,AC,35590,2153,227963,-8.15697,-70.7722,3101497,6.0,187624.0
1200708,Xapuri,AC,16074,1418,117260,-10.6516,-68.4969,1844765,8.8,162740.0
1300144,Apuí,AM,17961,930,104518,-7.19409,-59.896,2844575,5.2,147289.0
1300300,Autazes,AM,32115,2470,154785,-3.58574,-59.1256,1457391,7.7,112090.0
1300409,Barcelos,AM,25715,1348,93663,-0.983373,-62.9311,1096089,5.2,57458.0
1300508,Barreirinha,AM,27355,1972,117983,-2.79886,-57.0679,987921,7.2,71218.0
1300607,Benjamin Constant,AM,32796,1829,137141,-4.37768,-70.0342,2655262,5.6,148081.0
1300706,Boca do Acre,AM,30601,2167,151889,-8.74232,-67.3919,2566827,7.1,181769.0
1300805,Borba,AM,34953,2158,156532,-4.39154,-59.5874,1135280,6.2,70092.0
1300904,Canutama,AM,12732,826,49394,-6.52582,-64.3953,2910790,6.5,188840.0
1301001,Carauari,AM,25762,1426,129697,-4.88161,-66.9086,2079913,5.5,115129.0
1301100,Careiro,AM,32734,1809,143727,-3.76803,-60.369,2112006,5.5,116717.0
1301209,Coari,AM,75804,4098,1998793,-4.09412,-63.1441,4647262,5.4,251233.0
1301308,Codajás,AM,23173,1285,120603,-3.83053,-62.0658,2872054,5.5,159262.0
1301407,Eirunepé,AM,30646,1452,151777,-6.65677,-69.8662,2450548,4.7,116106.0
1301605,Fonte Boa,AM,22772,1328,95662,-2.52342,-66.0942,2742634,5.8,159943.0
1301704,Humaitá,AM,44200,2617,217550,-7.51171,-63.0327,4008925,5.9,237361.0
1301852,Iranduba,AM,40692,2863,306446,-3.27479,-60.19,2791178,7.0,196381.0
1301902,Itacoatiara,AM,86737,6487,849637,-3.13861,-58.4449,6639743,7.5,496582.0
1302405,Lábrea,AM,37649,2318,205325,-7.26413,-64.7948,2677503,6.2,164850.0
1302504,Manacapuru,AM,85042,5717,647440,-3.29066,-60.6216,8208154,6.7,551798.0
1302603,Manaus,AM,1797361,109304,50168821,-3.11866,-60.0212,139937878,6.1,8510127.0
1302702,Manicoré,AM,47008,2955,251450,-5.80462,-61.2895,2598330,6.3,163335.0
1302900,Maués,AM,52217,3476,271611,-3.39289,-57.7067,2117314,6.7,140946.0
1303007,Nhamundá,AM,18278,1444,69664,-2.20793,-56.7112,1613923,7.9,127503.0
1303106,Nova Olinda do Norte,AM,30668,1976,128637,-3.90037,-59.094,778996,6.4,50192.0
1303205,Novo Airão,AM,14679,966,73846,-2.63637,-60.9434,1440160,6.6,94774.0
1303304,Novo Aripuanã,AM,21445,1316,78084,-5.12593,-60.3732,931963,6.1,57191.0
1303403,Parintins,AM,101974,7214,578337,-2.63741,-56.729,8273779,7.1,585316.0
1303536,Presidente Figueiredo,AM,27121,1443,314535,-2.02981,-60.0234,4211003,5.3,224051.0
1303569,Rio Preto da Eva,AM,25672,1414,193863,-2.7045,-59.6858,2245020,5.5,123654.0
1303700,Santo Antônio do Içá,AM,24346,1220,83501,-3.09544,-67.9463,1234942,5.0,61884.0
1303809,São Gabriel da Cachoeira,AM,37649,2592,162583,-0.11909,-67.084,4694186,6.9,323178.0
1303908,São Paulo de Olivença,AM,31286,1958,108879,-3.47292,-68.9646,1851214,6.3,115856.0
1304062,Tabatinga,AM,50149,2663,237078,-4.2416,-69.9383,5846119,5.3,310439.0
1304203,Tefé,AM,61321,3606,350169,-3.36822,-64.7193,8380517,5.9,492819.0
1304302,Urucará,AM,17072,1200,102020,-2.52936,-57.7538,1858111,7.0,130608.0
1400100,Boa Vista,RR,282522,15215,5123256,2.82384,-60.6753,51370256,5.4,2766505.0
1400209,Caracaraí,RR,18342,1131,174394,1.82766,-61.1304,1636815,6.2,100929.0
1400308,Mucajaí,RR,14715,995,147252,2.43998,-60.9096,2194439,6.8,148384.0
1400472,Rorainópolis,RR,24279,1324,241465,0.939956,-60.4389,8397961,5.5,457964.0
1400506,São João da Baliza,RR,6769,402,66010,0.951659,-59.9133,4848938,5.9,287971.0
1500107,Abaetetuba,PA,141030,10054,583793,-1.72183,-48.8788,9873555,7.1,703884.0
1500206,Acará,PA,53516,3577,440767,-1.95383,-48.1985,3554119,6.7,237557.0
1500305,Afuá,PA,35042,1798,161293,-0.154874,-50.3861,482661,5.1,24765.0
1500404,Alenquer,PA,52615,4242,361813,-1.94623,-54.7384,1749191,8.1,141026.0
1500503,Almeirim,PA,33606,1794,576867,-1.52904,-52.5788,7138651,5.3,381085.0
1500602,Altamira,PA,98994,6826,842408,-3.20407,-52.21,11877023,6.9,818964.0
1500800,Ananindeua,PA,471327,30616,4100513,-1.36391,-48.3743,18906987,6.5,1228142.0
1500909,Augusto Corrêa,PA,40497,3126,133308,-1.05109,-46.6147,1328105,7.7,102518.0
1501204,Baião,PA,36882,2193,169274,-2.79021,-49.6694,2098545,5.9,124779.0
1501303,Barcarena,PA,99821,5276,2227150,-1.51187,-48.6195,6033711,5.3,318909.0
1501402,Belém,PA,1390946,130315,18801039,-1.4554,-48.4898,146206163,9.4,13697768.0
1501501,Benevides,PA,51641,3515,580847,-1.36183,-48.2434,4607982,6.8,313647.0
1501576,Bom Jesus do Tocantins,PA,15298,1318,86836,-5.0424,-48.6047,2167925,8.6,186778.0
1501709,Bragança,PA,113208,8780,509272,-1.06126,-46.7826,8468416,7.8,656779.0
1501808,Breves,PA,92850,5789,363440,-1.68036,-50.4791,5304354,6.2,330715.0
1502103,Cametá,PA,120881,9397,475011,-2.24295,-49.4979,5472409,7.8,425412.0
1502152,Canaã dos Carajás,PA,26716,1132,2120092,-6.49659,-49.8776,5192442,4.2,220012.0
1502202,Capanema,PA,63610,5497,601464,-1.20529,-47.1778,10196359,8.6,881141.0
1502301,Capitão Poço,PA,51882,3946,232622,-1.74785,-47.0629,4892243,7.6,372090.0
1502400,Castanhal,PA,172919,12591,1738923,-1.29797,-47.9167,13601117,7.3,990358.0
1502707,Conceição do Araguaia,PA,45494,4419,299034,-8.26136,-49.2689,4766732,9.7,463010.0
1502756,Concórdia do Pará,PA,28216,1925,136685,-1.99238,-47.9422,4795921,6.8,327195.0
1502772,Curionópolis,PA,18288,1706,116295,-6.09965,-49.6068,2850329,9.3,265894.0
1502905,Curuçá,PA,34257,3364,132771,-0.733214,-47.8515,3505130,9.8,344200.0
1502939,Dom Eliseu,PA,51252,2595,311832,-4.19944,-47.8245,3548720,5.1,179679.0
1502954,Eldorado do Carajás,PA,31786,2167,200326,-6.10389,-49.3553,431895,6.8,29444.0
1503200,Igarapé-Açu,PA,35866,3111,136819,-1.12539,-47.626,3746735,8.7,324990.0
1503309,Igarapé-Miri,PA,58077,4336,237082,-1.97533,-48.9575,3273970,7.5,244433.0
1503457,Ipixuna do Pará,PA,51309,2388,387767,-2.55992,-47.5059,425590,4.7,19808.0
1503507,Irituia,PA,31360,3002,105748,-1.76984,-47.446,2894982,9.6,277128.0
1503606,Itaituba,PA,97450,6014,906107,-4.2667,-55.9926,10224401,6.2,630986.0
1503705,Itupiranga,PA,51213,3311,241334,-5.13272,-49.3358,1805687,6.5,116740.0
1503804,Jacundá,PA,51335,3322,263119,-4.44617,-49.1153,6508139,6.5,421156.0
1503903,Juruti,PA,47062,3059,480752,-2.16347,-56.0889,2013892,6.5,130902.0
1504059,Mãe do Rio,PA,27904,2383,174972,-2.05683,-47.5601,5104230,8.5,435901.0
1504208,Marabá,PA,233580,13025,3458625,-5.38075,-49.1327,16034615,5.6,894130.0
1504307,Maracanã,PA,28376,3048,112322,-0.778899,-47.452,2079498,10.7,223369.0
1504422,Marituba,PA,108224,5822,732171,-1.36002,-48.3421,6576344,5.4,353780.0
1504455,Medicilândia,PA,27328,1592,258218,-3.44637,-52.8875,6289068,5.8,366371.0
1504604,Mocajuba,PA,26731,2119,128841,-2.5831,-49.5042,2610138,7.9,206909.0
1504703,Moju,PA,70018,4066,398706,-1.88993,-48.7668,3793770,5.8,220307.0
1504802,Monte Alegre,PA,55445,4823,394236,-1.99768,-54.0724,5306958,8.7,461637.0
1505007,Nova Timboteua,PA,13660,1559,56296,-1.20874,-47.3921,2052820,11.4,234286.0
1505031,Novo Progresso,PA,25014,1038,293613,-7.14347,-55.3786,3902904,4.1,161958.0
1505064,Novo Repartimento,PA,62032,3413,347951,-4.24749,-49.9499,3947845,5.5,217210.0
1505106,Óbidos,PA,49324,4514,363169,-1.90107,-55.5208,2826527,9.2,258676.0
1505304,Oriximiná,PA,62750,4259,1635545,-1.75989,-55.8579,5108790,6.8,346746.0
1505403,Ourém,PA,16306,1472,90156,-1.54168,-47.1126,3081186,9.0,278150.0
1505437,Ourilândia do Norte,PA,27359,1100,326029,-6.7529,-51.0858,8690529,4.0,349413.0
1505486,Pacajá,PA,39979,2358,224947,-3.83542,-50.6399,3367449,5.9,198615.0
1505502,Paragominas,PA,97819,4133,1427239,-3.00212,-47.3527,4612095,4.2,194868.0
1505536,Parauapebas,PA,153816,5182,14985170,-6.06781,-49.9037,10971665,3.4,369631.0
1505809,Portel,PA,52172,2715,264772,-1.93639,-50.8194,5662142,5.2,294655.0
1506138,Redenção,PA,75531,4653,752443,-8.02529,-50.0317,7074586,6.2,435822.0
1506161,Rio Maria,PA,17686,1450,201449,-7.31236,-50.0379,4451008,8.2,364919.0
1506187,Rondon do Pará,PA,46943,3229,333880,-4.77793,-48.067,4481153,6.9,308239.0
1506195,Rurópolis,PA,40087,2505,149745,-4.10028,-54.9092,4787097,6.2,299141.0
1506203,Salinópolis,PA,37414,2859,176749,-0.630815,-47.3465,3882007,7.6,296645.0
1506500,Santa Izabel do Pará,PA,59409,4173,366698,-1.29686,-48.1606,7281006,7.0,511432.0
1506609,Santa Maria do Pará,PA,22971,1897,152534,-1.35392,-47.5712,4903117,8.3,404911.0
1506708,Santana do Araguaia,PA,56131,2656,329767,-9.3281,-50.35,3647574,4.7,172595.0
1506807,Santarém,PA,294446,22537,2309692,-2.43849,-54.6996,23111282,7.7,1768946.0
1507151,São Domingos do Araguaia,PA,23108,1969,113690,-5.53732,-48.7366,3298383,8.5,281051.0
1507201,São Domingos do Capim,PA,29846,2093,151118,-1.68768,-47.7665,1597117,7.0,112000.0
1507300,São Félix do Xingu,PA,91316,3670,495055,-6.64254,-51.9904,2834156,4.0,113905.0
1507409,São Francisco do Pará,PA,15056,1589,96494,-1.16963,-47.7917,1704445,10.6,179886.0
1507458,São Geraldo do Araguaia,PA,25587,2013,166439,-6.39471,-48.5592,3640320,7.9,286394.0
1507607,São Miguel do Guamá,PA,51545,4120,338330,-1.61307,-47.4784,4032692,8.0,322334.0
1507904,Soure,PA,22993,2012,86847,-0.73032,-48.5015,2918251,8.8,255361.0
1507953,Tailândia,PA,79277,2813,422201,-2.94584,-48.9489,6554821,3.5,232586.0
1508001,Tomé-Açu,PA,56381,3536,335913,-2.41302,-48.1415,4829491,6.3,302887.0
1508084,Tucumã,PA,33666,1918,348358,-6.74687,-51.1626,5328925,5.7,303596.0
1508100,Tucuruí,PA,97117,5133,2566105,-3.7657,-49.6773,12756277,5.3,674217.0
1508126,Ulianópolis,PA,43341,1601,545230,-3.75007,-47.4892,3781818,3.7,139699.0
1508159,Uruará,PA,44789,2459,294588,-3.71519,-53.7396,5453957,5.5,299432.0
1508209,Vigia,PA,47875,4065,180174,-0.861194,-48.1386,3617120,8.5,307125.0
1508308,Viseu,PA,56716,3958,237509,-1.19124,-46.1399,1066023,7.0,74394.0
1508407,Xinguara,PA,40526,2472,500256,-7.0983,-49.9437,7992219,6.1,487508.0
1600105,Amapá,AP,8065,520,77628,2.05267,-50.7957,930808,6.4,60015.0
1600154,Pedra Branca do Amapari,AP,10764,551,171959,0.777424,-51.9503,246833,5.1,12635.0
1600279,Laranjal do Jari,AP,39919,1702,346803,-0.804911,-52.453,2443393,4.3,104177.0
1600303,Macapá,AP,397604,20809,5503896,0.034934,-51.0694,33059065,5.2,1730179.0
1600501,Oiapoque,AP,20318,706,193371,3.84074,-51.8331,3518591,3.5,122262.0
1600535,Porto Grande,AP,16787,881,211985,0.71243,-51.4155,1754163,5.2,92060.0
1600600,Santana,AP,101160,5738,1075428,-0.045434,-51.1729,6744281,5.7,382549.0
1700350,Aliança do Tocantins,TO,5668,689,46764,-11.3056,-48.9361,1774469,12.2,215704.0
1700707,Alvorada,TO,8374,874,144372,-12.4785,-49.1249,5791030,10.4,604414.0
1701002,Ananás,TO,9848,942,61771,-6.36437,-48.0735,3624607,9.6,346708.0
1702000,Araguaçu,TO,8780,1076,97398,-12.9289,-49.8231,2659085,12.3,325874.0
1702109,Araguaína,TO,150381,11035,1980668,-7.19238,-48.2044,22382143,7.3,1642408.0
1702208,Araguatins,TO,31329,2793,193361,-5.64659,-48.1232,6094249,8.9,543306.0
1702307,Arapoema,TO,6736,603,54103,-7.65463,-49.0637,3024854,9.0,270782.0
1702406,Arraias,TO,10645,1196,117229,-12.9287,-46.9359,6883533,11.2,773387.0
1702554,Augustinópolis,TO,15950,1466,101686,-5.46863,-47.8863,5597776,9.2,514504.0
1705508,Colinas do Tocantins,TO,30788,2559,314491,-8.05764,-48.4757,8396892,8.3,697923.0
1707009,Dianópolis,TO,19099,1579,264357,-11.624,-46.8198,6254028,8.3,517049.0
1707702,Filadélfia,TO,8505,1042,59687,-7.33501,-47.4954,2150647,12.3,263489.0
1708205,Formoso do Araguaia,TO,18413,1771,214558,-11.7976,-49.5316,3313598,9.6,318709.0
1709302,Guaraí,TO,23168,2122,277727,-8.83543,-48.5114,5328763,9.2,488071.0
1709500,Gurupi,TO,76688,6699,1234374,-11.7279,-49.068,14141898,8.7,1235351.0
1713205,Miracema do Tocantins,TO,20672,1880,411917,-9.56556,-48.393,5523586,9.1,502339.0
1713304,Miranorte,TO,12623,1434,109323,-9.52907,-48.5922,2620142,11.4,297654.0
1714203,Natividade,TO,9000,1004,66308,-11.7034,-47.7223,3026680,11.2,337643.0
1715754,Palmeirópolis,TO,7339,764,60013,-13.0447,-48.4026,4334997,10.4,451279.0
1716109,Paraíso do Tocantins,TO,44407,3761,570080,-10.175,-48.8823,8230594,8.5,697081.0
1716505,Pedro Afonso,TO,11539,1034,175468,-8.97034,-48.1729,3454185,9.0,309527.0
1716703,Colméia,TO,8611,1051,65867,-8.72463,-48.7638,4807934,12.2,586824.0
1718204,Porto Nacional,TO,49127,4493,550115,-10.7027,-48.408,11900132,9.1,1088348.0
1720655,Silvanópolis,TO,5063,706,46900,-11.1471,-48.1694,1650624,13.9,230168.0
1720903,Taguatinga,TO,15042,1668,110350,-12.4026,-46.437,5639818,11.1,625397.0
1721000,Palmas,TO,228037,9737,4102952,-10.24,-48.3558,29138627,4.3,1244196.0
1721208,Tocantinópolis,TO,22619,2220,140542,-6.32447,-47.4224,5091826,9.8,499750.0
1722107,Xambioá,TO,11484,1101,230192,-6.4141,-48.532,7333474,9.6,703079.0
2100055,Açailândia,MA,104018,7090,1012037,-4.94714,-47.5004,10264794,6.8,699661.0
2100477,Alto Alegre do Pindaré,MA,31045,2650,97762,-3.66689,-45.8421,661834,8.5,56494.0
2100501,Alto Parnaíba,MA,10755,1072,131202,-9.10273,-45.9303,2985803,10.0,297609.0
2100600,Amarante do Maranhão,MA,37932,3275,129545,-5.56913,-46.7473,125598,8.6,10844.0
2100907,Araioses,MA,42505,4534,142220,-2.89091,-41.905,5051944,10.7,538890.0
2101004,Arari,MA,28488,2624,111985,-3.45214,-44.7665,7106801,9.2,654600.0
2101202,Bacabal,MA,100007,10119,607057,-4.22447,-44.7832,13439491,10.1,1359847.0
2101400,Balsas,MA,83490,5537,1438810,-7.53214,-46.0372,11097231,6.6,735961.0
2101608,Barra do Corda,MA,82821,8656,309790,-5.49682,-45.2485,12896284,10.5,1347849.0
2101707,Barreirinhas,MA,54930,3957,196705,-2.75863,-42.8232,34510119,7.2,2486010.0
2102002,Bom Jardim,MA,39040,3577,156660,-3.54129,-45.606,5683787,9.2,520771.0
2102101,Brejo,MA,33359,3356,134500,-3.67796,-42.7527,4582355,10.1,460997.0
2102200,Buriti,MA,27013,2586,91132,-3.94169,-42.9179,5101382,9.6,488364.0
2102325,Buriticupu,MA,65237,4059,244982,-4.32375,-46.4409,5869455,6.2,365193.0
2102556,Campestre do Maranhão,MA,13369,1149,57290,-6.17075,-47.3625,1714497,8.6,147353.0
2102705,Cantanhede,MA,20448,1669,62812,-3.63757,-44.383,5844849,8.2,477066.0
2102804,Carolina,MA,23959,2820,144282,-7.33584,-47.4634,6474498,11.8,762055.0
2102903,Carutapera,MA,22006,1676,76066,-1.19696,-46.0085,1913787,7.6,145756.0
2103000,Caxias,MA,155126,16847,1025086,-4.86505,-43.3617,20262015,10.9,2200496.0
2103208,Chapadinha,MA,73333,6660,331086,-3.73875,-43.3538,8748019,9.1,794483.0
2103307,Codó,MA,118015,12339,593908,-4.45562,-43.8924,9284533,10.5,970740.0
2103406,Coelho Neto,MA,46750,4412,184328,-4.25245,-43.0108,6594207,9.4,622324.0
2103505,Colinas,MA,39132,3373,155748,-6.03199,-44.2543,13923087,8.6,1200107.0
2103604,Coroatá,MA,61715,6401,213302,-4.13442,-44.1244,4312865,10.4,447325.0
2103703,Cururupu,MA,32652,3542,109156,-1.81475,-44.8644,8214067,10.8,891040.0
2103802,Dom Pedro,MA,22681,2194,124434,-5.03518,-44.4409,8242255,9.7,797298.0
2103901,Duque Bacelar,MA,10649,853,30436,-4.15002,-42.9477,559253,8.0,44797.0
2104008,Esperantinópolis,MA,18446,1964,62978,-4.87938,-44.6926,3787347,10.6,403250.0
2104057,Estreito,MA,35823,2572,443751,-6.56077,-47.4431,4730139,7.2,339612.0
2104099,Formosa da Serra Negra,MA,17752,1232,75038,-6.44017,-46.1916,898784,6.9,62376.0
2104107,Fortaleza dos Nogueiras,MA,11646,897,87270,-6.95983,-46.1749,60526,7.7,4662.0
2104677,Governador Nunes Freire,MA,25401,1704,106540,-2.12899,-45.8777,312731,6.7,20979.0
2104800,Grajaú,MA,62084,4638,313698,-5.81367,-46.1462,8024539,7.5,599475.0
2105203,Igarapé Grande,MA,11030,1291,40758,-4.6625,-44.8558,3239285,11.7,379140.0
2105302,Imperatriz,MA,247361,20548,2936194,-5.51847,-47.4777,27016539,8.3,2244234.0
2105401,Itapecuru Mirim,MA,62110,5859,286118,-3.40202,-44.3508,12816546,9.4,1209019.0
2105427,Itinga do Maranhão,MA,24851,1960,136049,-4.45293,-47.5235,2917909,7.9,230136.0
2105500,João Lisboa,MA,20381,2147,105512,-5.44363,-47.4064,6943305,10.5,731430.0
2105708,Lago da Pedra,MA,46034,4434,175720,-4.56974,-45.1319,9227204,9.6,888765.0
2106102,Loreto,MA,11390,1107,86918,-7.08111,-45.1451,2211504,9.7,214937.0
2106326,Maracaçumé,MA,19140,1606,83635,-2.04918,-45.9587,4825839,8.4,404927.0
2106706,Mirador,MA,20452,1891,83775,-6.37454,-44.3683,5898429,9.2,545371.0
2106805,Mirinzal,MA,14218,1480,41328,-2.07094,-44.7787,2926984,10.4,304680.0
2107506,Paço do Lumiar,MA,105095,6570,378482,-2.51657,-44.1019,6995527,6.3,437324.0
2107803,Parnarama,MA,34586,3371,113052,-5.67365,-43.1011,10630024,9.7,1036078.0
2107902,Passagem Franca,MA,17562,1956,63913,-6.17745,-43.7755,6890256,11.1,767415.0
2108108,Paulo Ramos,MA,20079,1813,81446,-4.44485,-45.2398,5002701,9.0,451711.0
2108207,Pedreiras,MA,39448,4385,275078,-4.56482,-44.6006,11017144,11.1,1224655.0
2108504,Pindaré-Mirim,MA,31152,3188,111629,-3.60985,-45.342,4326978,10.2,442810.0
2108603,Pinheiro,MA,78150,7504,447266,-2.52224,-45.0788,12616385,9.6,1211431.0
2108900,Poção de Pedras,MA,19708,2142,90905,-4.74626,-44.9432,3915915,10.9,425608.0
2109007,Porto Franco,MA,21521,1929,224762,-6.34149,-47.3962,7934042,9.0,711155.0
2109106,Presidente Dutra,MA,44689,4188,279253,-5.2898,-44.495,13364466,9.4,1252442.0
2109502,Riachão,MA,20209,2183,147762,-7.35819,-46.6225,3809253,10.8,411480.0
2109601,Rosário,MA,39576,3683,159325,-2.93444,-44.2531,9353244,9.3,870426.0
2109809,Santa Helena,MA,39110,3477,113287,-2.24426,-45.29,38118028,8.9,3388811.0
2109908,Santa Inês,MA,77282,7683,670908,-3.65112,-45.3774,15602192,9.9,1551094.0
2110005,Santa Luzia,MA,74043,6357,336588,-4.06873,-45.69,12160860,8.6,1044077.0
2110039,Santa Luzia do Paruá,MA,22644,2082,126756,-2.51123,-45.7801,3461039,9.2,318225.0
2110104,Santa Quitéria do Maranhão,MA,29191,2397,92048,-3.49308,-42.5688,2737431,8.2,224782.0
2110203,Santa Rita,MA,32357,2838,104005,-3.14241,-44.3211,356264,8.8,31248.0
2110500,São Bento,MA,40736,3918,121744,-2.69781,-44.8289,5407661,9.6,520110.0
2110609,São Bernardo,MA,26476,2536,124478,-3.37223,-42.4191,7785367,9.6,745720.0
2110708,São Domingos do Maranhão,MA,33607,3360,163486,-5.58095,-44.3822,14704364,10.0,1470130.0
2111003,São João Batista,MA,19920,2084,45052,-2.95398,-44.7953,4189673,10.5,438317.0
2111052,São João do Paraíso,MA,10814,1015,52090,-6.45634,-47.0594,1505154,9.4,141273.0
2111102,São João dos Patos,MA,24928,3031,116421,-6.4934,-43.7036,22079117,12.2,2684604.0
2111201,São José de Ribamar,MA,163035,10163,752813,-2.54704,-44.0597,4419991,6.2,275526.0
2111300,São Luís,MA,1014000,79222,18211488,-2.53874,-44.2825,133017727,7.8,10392436.0
2111508,São Mateus do Maranhão,MA,39093,3986,130919,-4.03736,-44.4707,8718508,10.2,888956.0
2111607,São Raimundo das Mangabeiras,MA,17470,1979,220286,-7.02183,-45.4809,6797158,11.3,769981.0
2111706,São Vicente Ferrer,MA,20863,2061,67873,-2.89487,-44.8681,2102233,9.9,207674.0
2111763,Senador La Rocque,MA,17998,1862,88131,-5.4461,-47.2959,2278088,10.3,235682.0
2112001,Tasso Fragoso,MA,7796,651,411130,-8.4662,-45.7536,1877601,8.4,156788.0
2112209,Timon,MA,155446,13513,977153,-5.09769,-42.8329,14764022,8.7,1283444.0
2112308,Tuntum,MA,39171,4009,141342,-5.25476,-44.6444,9153668,10.2,936842.0
2112407,Turiaçu,MA,33933,2559,150954,-1.65893,-45.3798,1099496,7.5,82917.0
2112506,Tutóia,MA,52775,4418,155117,-2.76141,-42.2755,11592260,8.4,970433.0
2112704,Vargem Grande,MA,49407,4081,160640,-3.53639,-43.917,6356646,8.3,525057.0
2112803,Viana,MA,49496,4562,184402,-3.20451,-44.9912,8298368,9.2,764853.0
2112852,Vila Nova dos Martírios,MA,11258,890,41433,-5.18889,-48.1336,1621018,7.9,128149.0
2112902,Vitória do Mearim,MA,31217,2769,110723,-3.45125,-44.8643,0,8.9,0.0
2113009,Vitorino Freire,MA,31658,3575,120494,-4.28184,-45.2505,6985220,11.3,788810.0
2114007,Zé Doca,MA,50152,4456,224586,-3.27014,-45.6553,8935078,8.9,793881.0
2200202,Água Branca,PI,16451,2085,76825,-5.88856,-42.637,6747704,12.7,855204.0
2200400,Altos,PI,38822,4725,159702,-5.03888,-42.4612,9033992,12.2,1099521.0
2200509,Amarante,PI,17135,2420,68129,-6.24304,-42.8433,7078077,14.1,999647.0
2201200,Barras,PI,44837,4707,170486,-4.24468,-42.2922,12452572,10.5,1307274.0
2201507,Batalha,PI,25774,2738,89628,-4.0223,-42.0787,5122957,10.6,544217.0
2201903,Bom Jesus,PI,22609,1770,204103,-9.07124,-44.359,5880334,7.8,460356.0
2202000,Buriti dos Lopes,PI,19074,2131,88329,-3.18259,-41.8695,5070704,11.2,566513.0
2202208,Campo Maior,PI,45154,6074,265506,-4.8217,-42.1641,12528688,13.5,1685327.0
2202307,Canto do Buriti,PI,20015,2398,98146,-8.1111,-42.9517,9803701,12.0,1174583.0
2202604,Castelo do Piauí,PI,18336,2410,81951,-5.31869,-41.5499,13891004,13.1,1825770.0
2202703,Cocal,PI,26036,2711,87457,-3.47279,-41.5546,6137901,10.4,639109.0
2202901,Corrente,PI,25386,2289,161700,-10.4333,-45.1633,7700250,9.0,694315.0
2203206,Curimatá,PI,10761,1216,43615,-10.0326,-44.3002,4975494,11.3,562234.0
2203503,Elesbão Veloso,PI,14512,2248,59202,-6.19947,-42.1355,10875192,15.5,1684636.0
2203701,Esperantina,PI,37767,4284,159346,-3.88863,-42.2324,11461133,11.3,1300063.0
2203909,Floriano,PI,57673,6624,550100,-6.77182,-43.0241,29370124,11.5,3373289.0
2204303,Fronteiras,PI,11117,1356,184980,-7.08173,-40.6146,12311101,12.2,1501651.0
2204402,Gilbués,PI,10391,995,73093,-9.83001,-45.3423,2617545,9.6,250645.0
2204501,Guadalupe,PI,10263,1018,198106,-6.78285,-43.5594,5812794,9.9,576578.0
2205102,Itaueira,PI,10678,1408,51693,-7.59989,-43.0249,4207539,13.2,554806.0
2205508,José de Freitas,PI,37085,4493,166239,-4.75146,-42.5746,4410684,12.1,534372.0
2205706,Luís Correia,PI,28395,2671,116538,-2.88438,-41.6641,3481209,9.4,327463.0
2205805,Luzilândia,PI,24721,2793,112021,-3.4683,-42.3718,9143842,11.3,1033079.0
2206209,Miguel Alves,PI,32289,3490,108685,-4.16857,-42.8963,4515359,10.8,488049.0
2207009,Oeiras,PI,35640,4467,192402,-7.01915,-42.1283,16589193,12.5,2079235.0
2207702,Parnaíba,PI,145610,16294,967408,-2.90585,-41.7754,37955896,11.2,4247328.0
2207801,Paulistana,PI,19777,2293,167134,-8.13436,-41.1431,7443795,11.6,863054.0
2207900,Pedro II,PI,37496,4881,139842,-4.42585,-41.4482,12028358,13.0,1565778.0
2208007,Picos,PI,73414,7127,682828,-7.07721,-41.467,40563954,9.7,3937931.0
2208304,Piracuruca,PI,27553,3252,116219,-3.93335,-41.7088,10914437,11.8,1288199.0
2208403,Piripiri,PI,61834,8046,322809,-4.27157,-41.7716,20010759,13.0,2603852.0
2208809,Regeneração,PI,17556,2112,66193,-6.23115,-42.6842,5398918,12.0,649494.0
2208908,Ribeiro Gonçalves,PI,6845,566,81673,-7.55651,-45.2447,2957568,8.3,244556.0
2210003,São João do Piauí,PI,19542,2190,90372,-8.35466,-42.2559,4779154,11.2,535582.0
2210508,São Pedro do Piauí,PI,13639,1626,49763,-5.92078,-42.7192,3668048,11.9,437294.0
2210607,São Raimundo Nonato,PI,32312,3136,173530,-9.01241,-42.6987,14548383,9.7,1411975.0
2210805,Simplício Mendes,PI,12077,1579,55840,-7.85294,-41.9075,7031440,13.1,919321.0
2211001,Teresina,PI,814052,71781,10627694,-5.09194,-42.8034,125745860,8.8,11087945.0
2211100,União,PI,42654,4850,207504,-4.58571,-42.8583,9112623,11.4,1036157.0
2211209,Uruçuí,PI,20149,2066,427632,-7.23944,-44.5577,10312068,10.3,1057359.0
2211308,Valença do Piauí,PI,20326,3085,101604,-6.40301,-41.7375,10627399,15.2,1612985.0
2300200,Acaraú,CE,57532,5842,327756,-2.88769,-40.1183,13013302,10.2,1321416.0
2300309,Acopiara,CE,51160,7542,213402,-6.08911,-39.448,13884347,14.7,2046828.0
2300754,Amontada,CE,39189,4220,240831,-3.36017,-39.8288,3905045,10.8,420508.0
2301000,Aquiraz,CE,72403,6993,768348,-3.89929,-38.3896,9283730,9.7,896663.0
2301109,Aracati,CE,68997,7733,577081,-4.55826,-37.7679,15577209,11.2,1745852.0
2301208,Aracoiaba,CE,25391,3352,98749,-4.36872,-38.8125,3908762,13.2,516016.0
2301604,Assaré,CE,22435,3303,86370,-6.8669,-39.8689,7042198,14.7,1036790.0
2301703,Aurora,CE,24566,3697,97152,-6.93349,-38.9742,6853342,15.0,1031377.0
2301851,Banabuiú,CE,17310,1899,83348,-5.30454,-38.9132,1377586,11.0,151129.0
2301901,Barbalha,CE,55316,6346,464715,-7.2982,-39.3021,14851705,11.5,1703827.0
2302008,Barro,CE,21505,3108,94975,-7.17188,-38.7741,9310856,14.5,1345647.0
2302107,Baturité,CE,33321,3916,196688,-4.32598,-38.8812,11194516,11.8,1315619.0
2302206,Beberibe,CE,49267,6062,328009,-4.17741,-38.1271,10452088,12.3,1286065.0
2302305,Bela Cruz,CE,30878,3524,105038,-3.04996,-40.1671,8315806,11.4,949054.0
2302404,Boa Viagem,CE,52498,7644,230697,-5.11258,-39.7337,6835511,14.6,995288.0
2302503,Brejo Santo,CE,45180,5382,246828,-7.48469,-38.9799,10631253,11.9,1266432.0
2302602,Camocim,CE,60144,6099,377211,-2.9005,-40.8544,13310747,10.1,1349798.0
2302701,Campos Sales,CE,26506,3792,121510,-7.06761,-40.3687,8749907,14.3,1251779.0
2302800,Canindé,CE,74461,9553,364415,-4.35162,-39.3155,9901065,12.8,1270261.0
2303204,Caririaçu,CE,26393,3390,100203,-7.02808,-39.2828,7249764,12.8,931183.0
2303501,Cascavel,CE,66115,7775,477434,-4.12967,-38.2412,15441770,11.8,1815923.0
2303600,Catarina,CE,18745,2063,58323,-6.12291,-39.8736,2694921,11.0,296592.0
2303709,Caucaia,CE,325283,24987,2842606,-3.72797,-38.6619,23009294,7.7,1767486.0
2303808,Cedro,CE,24527,3846,104132,-6.60034,-39.0609,4219770,15.7,661689.0
2304103,Crateús,CE,72775,10758,379567,-5.16768,-40.6536,17012945,14.8,2514947.0
2304202,Crato,CE,121360,14067,985410,-7.2153,-39.4103,20368486,11.6,2360938.0
2304285,Eusébio,CE,45927,3354,1404071,-3.8925,-38.4559,11390906,7.3,831866.0
2304350,Forquilha,CE,21786,2496,91466,-3.79945,-40.2634,3716073,11.5,425747.0
2304400,Fortaleza,CE,2448184,243894,37001831,-3.71664,-38.5423,243161894,10.0,24224375.0
2304509,Frecheirinha,CE,12991,1524,64828,-3.75557,-40.818,4831637,11.7,566809.0
2304707,Granja,CE,52645,5780,185041,-3.12788,-40.8372,5050052,11.0,554455.0
2305001,Guaraciaba do Norte,CE,37755,4717,208952,-4.15814,-40.7476,10832126,12.5,1353334.0
2305209,Hidrolândia,CE,19325,2983,80600,-4.40958,-40.4056,6938566,15.4,1071035.0
2305233,Horizonte,CE,55187,4176,1146485,-4.1209,-38.4707,3964930,7.6,300026.0
2305308,Ibiapina,CE,23798,2924,118604,-3.92403,-40.8911,5555548,12.3,682596.0
2305357,Icapuí,CE,18380,1893,152508,-4.71206,-37.3531,7117871,10.3,733086.0
2305407,Icó,CE,65456,8408,302016,-6.39627,-38.8554,15446393,12.8,1984131.0
2305506,Iguatu,CE,96485,12666,884474,-6.36281,-39.2892,17457405,13.1,2291708.0
2305605,Independência,CE,25573,3781,127140,-5.38789,-40.3085,5577755,14.8,824678.0
2305704,Ipaumirim,CE,12009,1825,50313,-6.78265,-38.7179,4624176,15.2,702733.0
2305803,Ipu,CE,40296,5707,190443,-4.31748,-40.7059,17043719,14.2,2413850.0
2305902,Ipueiras,CE,37862,5468,145214,-4.53802,-40.7118,4967668,14.4,717427.0
2306009,Iracema,CE,13722,2159,70358,-5.8124,-38.2919,5467999,15.7,860327.0
2306256,Itaitinga,CE,35806,3035,200020,-3.96577,-38.5298,4144530,8.5,351300.0
2306306,Itapajé,CE,48350,5082,594791,-3.68314,-39.5855,7012968,10.5,737123.0
2306405,Itapipoca,CE,116038,12252,704980,-3.49933,-39.5836,12749206,10.6,1346139.0
2306553,Itarema,CE,37460,3651,208962,-2.9248,-39.9167,3584415,9.7,349351.0
2306900,Jaguaribe,CE,34409,5253,235624,-5.90213,-38.6227,10690828,15.3,1632100.0
2307007,Jaguaruana,CE,32236,4089,230189,-4.83151,-37.781,6404491,12.7,812383.0
2307106,Jardim,CE,26688,3542,107867,-7.57599,-39.2826,8232596,13.3,1092620.0
2307304,Juazeiro do Norte,CE,249869,26527,2151335,-7.19621,-39.3076,26676448,10.6,2832069.0
2307403,Jucás,CE,23807,3426,103169,-6.51523,-39.5187,5220716,14.4,751299.0
2307502,Lavras da Mangabeira,CE,31090,4615,111666,-6.7448,-38.9706,5924209,14.8,879390.0
2307601,Limoeiro do Norte,CE,56264,6593,505778,-5.14392,-38.0847,14762757,11.7,1729896.0
2307650,Maracanaú,CE,209035,16220,4499790,-3.86699,-38.6259,10996679,7.8,853284.0
2307700,Maranguape,CE,113510,10790,820090,-3.89143,-38.6829,13066911,9.5,1242111.0
2307809,Marco,CE,24703,2436,149580,-3.1285,-40.1582,3827631,9.9,377448.0
2308005,Massapê,CE,35191,3862,120691,-3.52364,-40.3423,9737451,11.0,1068627.0
2308104,Mauriti,CE,44240,5081,187164,-7.38597,-38.7708,6199621,11.5,712032.0
2308302,Milagres,CE,28316,3612,121563,-7.29749,-38.9378,6167544,12.8,786734.0
2308401,Missão Velha,CE,34266,4229,165701,-7.23522,-39.143,5982429,12.3,738332.0
2308500,Mombaça,CE,42690,6427,158758,-5.73844,-39.63,6776014,15.1,1020132.0
2308708,Morada Nova,CE,62065,8689,409293,-5.09736,-38.3702,14883564,14.0,2083675.0
2308906,Morrinhos,CE,20689,2438,75629,-3.23426,-40.1233,3075379,11.8,362404.0
2309300,Nova Russas,CE,30965,4881,140458,-4.70581,-40.5621,9217974,15.8,1453025.0
2309409,Novo Oriente,CE,27453,3558,97049,-5.52552,-40.7713,5776924,13.0,748709.0
2309508,Orós,CE,21389,3287,115554,-6.25182,-38.9053,7044992,15.4,1082654.0
2309607,Pacajus,CE,61838,5785,602770,-4.17107,-38.465,14995714,9.4,1402862.0
2309706,Pacatuba,CE,72278,5127,591627,-3.9784,-38.6183,4180165,7.1,296518.0
2310209,Paracuru,CE,31545,3155,252872,-3.41436,-39.03,10850876,10.0,1085260.0
2310308,Parambu,CE,31309,4586,118592,-6.20768,-40.6905,16930165,14.6,2479854.0
2310506,Pedra Branca,CE,41890,6166,158422,-5.45341,-39.7078,7048433,14.7,1037494.0
2310704,Pentecoste,CE,35400,3947,200100,-3.79274,-39.2692,14634024,11.1,1631652.0
2311108,Porteiras,CE,15061,2058,62748,-7.52265,-39.114,2965399,13.7,405205.0
2311306,Quixadá,CE,80555,10068,576334,-4.9663,-39.0155,13261135,12.5,1657416.0
2311405,Quixeramobim,CE,71887,9591,456018,-5.19067,-39.2889,4805883,13.3,641190.0
2311504,Quixeré,CE,19412,2184,129073,-5.07148,-37.9802,4818540,11.3,542123.0
2311603,Redenção,CE,26415,3304,156859,-4.21587,-38.7277,8786450,12.5,1099013.0
2311801,Russas,CE,69833,8057,575304,-4.92673,-37.9721,14163592,11.5,1634128.0
2312007,Santana do Acaraú,CE,29937,3490,110543,-3.46144,-40.2118,9746288,11.7,1136204.0
2312106,Santana do Cariri,CE,17165,2100,71494,-7.17613,-39.7302,6483371,12.2,793188.0
2312205,Santa Quitéria,CE,42763,5779,226303,-4.32608,-40.1523,12188721,13.5,1647186.0
2312304,São Benedito,CE,44155,5475,236891,-4.04713,-40.8596,8964485,12.4,1111551.0
2312403,São Gonçalo do Amarante,CE,43778,4423,517967,-3.60515,-38.9726,6251613,10.1,631616.0
2312700,Senador Pompeu,CE,26469,4273,136899,-5.58244,-39.3704,13359866,16.1,2156738.0
2312908,Sobral,CE,188169,17417,2553785,-3.68913,-40.3482,31662323,9.3,2930678.0
2313005,Solonópole,CE,17665,2877,77107,-5.71894,-39.0107,9738565,16.3,1586066.0
2313104,Tabuleiro do Norte,CE,29204,3775,180924,-5.24353,-38.1282,11258340,12.9,1455288.0
2313203,Tamboril,CE,25451,4062,98552,-4.83136,-40.3196,5702577,16.0,910136.0
2313302,Tauá,CE,55698,8393,272690,-5.98585,-40.2968,10974155,15.1,1653669.0
2313401,Tianguá,CE,68881,6149,472289,-3.72965,-40.9923,9961151,8.9,889231.0
2313500,Trairi,CE,51365,5842,263843,-3.26932,-39.2681,8335948,11.4,948089.0
2313609,Ubajara,CE,31775,3649,200408,-3.85448,-40.9204,18247870,11.5,2095562.0
2313807,Uruburetama,CE,19765,2051,185497,-3.62316,-39.5107,5957409,10.4,618196.0
2313955,Varjota,CE,17578,2572,98790,-4.19387,-40.4741,10765854,14.6,1575252.0
2314003,Várzea Alegre,CE,38434,6209,167745,-6.78264,-39.2942,9018151,16.2,1456879.0
2314102,Viçosa do Ceará,CE,54955,5877,220619,-3.5667,-41.0916,9675738,10.7,1034743.0
2400208,Açu,RN,53205,5812,442987,-5.58362,-36.914,11348257,10.9,1239659.0
2400505,Alexandria,RN,13507,2240,61503,-6.40533,-38.0142,9321764,16.6,1545921.0
2400802,Angicos,RN,11549,1676,68549,-5.65792,-36.6094,2370744,14.5,344044.0
2401008,Apodi,RN,34763,4176,347485,-5.65349,-37.7946,8224548,12.0,987996.0
2401107,Areia Branca,RN,25304,3067,688026,-4.95254,-37.1252,10327494,12.1,1251756.0
2401453,Baraúna,RN,24182,2119,270432,-5.06977,-37.6129,4052964,8.8,355150.0
2402006,Caicó,RN,62709,8349,537968,-6.45441,-37.1067,23681916,13.3,3152981.0
2402204,Canguaretama,RN,30892,2736,234467,-6.37193,-35.1281,6540917,8.9,579307.0
2402303,Caraúbas,RN,19576,2915,195639,-5.78387,-37.5586,7655630,14.9,1139976.0
2402600,Ceará-Mirim,RN,68130,7374,473140,-5.64323,-35.4247,14279271,10.8,1545506.0
2403103,Currais Novos,RN,42652,6264,380268,-6.25484,-36.5146,12784884,14.7,1877626.0
2403251,Parnamirim,RN,201886,15292,2794285,-5.91116,-35.271,16843343,7.6,1275811.0
2404200,Goianinha,RN,22471,1878,151614,-6.26486,-35.1943,12692871,8.4,1060799.0
2404507,Guamaré,RN,12404,1035,701908,-5.10619,-36.3222,1504020,8.3,125497.0
2405702,Jardim do Seridó,RN,12113,2207,90177,-6.58047,-36.7736,6090670,18.2,1109726.0
2405801,João Câmara,RN,32227,3816,208545,-5.54094,-35.8122,9469558,11.8,1121291.0
2406106,Jucurutu,RN,17692,2629,95806,-6.0306,-37.009,4405743,14.9,654686.0
2406700,Lajes,RN,10381,1544,51453,-5.69322,-36.247,2094109,14.9,311464.0
2407104,Macaíba,RN,69467,6679,1057411,-5.85229,-35.3552,12376480,9.6,1189954.0
2407203,Macau,RN,28954,3401,624095,-5.10795,-36.6318,10849598,11.7,1274417.0
2407807,Monte Alegre,RN,20667,2370,100880,-6.07063,-35.3253,5809726,11.5,666234.0
2408003,Mossoró,RN,259669,25203,4438424,-5.18374,-37.3474,34960364,9.7,3393189.0
2408102,Natal,RN,802227,89104,12918972,-5.79357,-35.1986,116695404,11.1,12961453.0
2408300,Nova Cruz,RN,35490,4765,247259,-6.47511,-35.4286,11961888,13.4,1606041.0
2408904,Parelhas,RN,20354,3001,131255,-6.68491,-36.6566,9088677,14.7,1340037.0
2409308,Patu,RN,11964,1666,51172,-6.10656,-37.6356,7566108,13.9,1053589.0
2409407,Pau dos Ferros,RN,27734,3279,235360,-6.10498,-38.2077,26035456,11.8,3078181.0
2411205,Santa Cruz,RN,35797,4331,190549,-6.22475,-36.0193,9857940,12.1,1192690.0
2411502,Santo Antônio,RN,22216,2774,107847,-6.31195,-35.4739,4409143,12.5,550547.0
2412005,São Gonçalo do Amarante,RN,87632,7575,1380003,-5.79068,-35.3257,3991587,8.6,345037.0
2412203,São José de Mipibu,RN,39776,4437,409696,-6.0773,-35.2417,10031011,11.2,1118956.0
2412500,São Miguel,RN,22157,2948,105323,-6.20283,-38.4947,24979323,13.3,3323511.0
2412609,São Paulo do Potengi,RN,15843,2191,99422,-5.8994,-35.7642,8439235,13.8,1167100.0
2414407,Touros,RN,31089,3337,195080,-5.20182,-35.4621,6128015,10.7,657763.0
2414506,Umarizal,RN,10659,1634,53106,-5.98238,-37.818,5460684,15.3,837110.0
2500304,Alagoa Grande,PB,28479,4171,139060,-7.03943,-35.6206,5751521,14.6,842361.0
2500403,Alagoa Nova,PB,19681,2752,139938,-7.05377,-35.7591,6231001,14.0,871283.0
2500601,Alhandra,PB,18007,1524,238949,-7.42977,-34.9057,4092480,8.5,346362.0
2500700,São João do Rio do Peixe,PB,18201,2978,93959,-6.72195,-38.4468,7817447,16.4,1279070.0
2501005,Araruna,PB,18879,2447,86241,-6.54848,-35.7498,5257196,13.0,681411.0
2501104,Areia,PB,23829,3263,122687,-6.96396,-35.6977,10801527,13.7,1479096.0
2501500,Bananeiras,PB,21851,3147,119264,-6.74775,-35.6246,14568864,14.4,2098220.0
2501807,Bayeux,PB,99639,9223,806091,-7.1238,-34.9293,10452656,9.3,967541.0
2501906,Belém,PB,17093,2919,80795,-6.74261,-35.5166,10638913,17.1,1816825.0
2503209,Cabedelo,PB,57853,5115,1564376,-6.98731,-34.8284,17423710,8.8,1540495.0
2503704,Cajazeiras,PB,58446,7991,545321,-6.88004,-38.5577,15624615,13.7,2136268.0
2504009,Campina Grande,PB,385075,44936,4992962,-7.22196,-35.8731,76053205,11.7,8874964.0
2504306,Catolé do Rocha,PB,28759,3688,179125,-6.34062,-37.747,9177373,12.8,1176889.0
2504405,Conceição,PB,18363,2413,88958,-7.55106,-38.5014,7583970,13.1,996576.0
2505105,Cuité,PB,19978,3349,98974,-6.47647,-36.1515,12211815,16.8,2047120.0
2506004,Esperança,PB,31095,4551,228856,-7.02278,-35.8597,13380715,14.6,1958374.0
2506301,Guarabira,PB,55326,6681,483904,-6.85064,-35.485,14558922,12.1,1758091.0
2506905,Itabaiana,PB,24481,3703,132521,-7.33167,-35.3317,14633849,15.1,2213518.0
2507002,Itaporanga,PB,23192,2800,139308,-7.30202,-38.1504,9162956,12.1,1106255.0
2507507,João Pessoa,PB,722151,77193,10843958,-7.11509,-34.8641,139121319,10.7,14871117.0
2508901,Mamanguape,PB,42291,4416,305037,-6.8337,-35.1213,15292618,10.4,1596846.0
2509107,Mari,PB,21176,3310,97952,-7.05942,-35.318,7809517,15.6,1220698.0
2509701,Monteiro,PB,30852,4867,188005,-7.88363,-37.1184,50023971,15.8,7891439.0
2510808,Patos,PB,100674,11958,830949,-7.01743,-37.2747,23239265,11.9,2760347.0
2511202,Pedras de Fogo,PB,27032,2977,291087,-7.39107,-35.1065,6570201,11.0,723568.0
2511301,Piancó,PB,15465,2192,88580,-7.19282,-37.9289,15210648,14.2,2155948.0
2511400,Picuí,PB,18222,2785,91320,-6.50845,-36.3497,4453740,15.3,680697.0
2511806,Pirpirituba,PB,10326,1431,44862,-6.77922,-35.4906,4892174,13.9,677968.0
2512002,Pocinhos,PB,17032,2368,114911,-7.06658,-36.0668,3954896,13.9,549859.0
2512101,Pombal,PB,32110,4935,202177,-6.76606,-37.8003,14117260,15.4,2169688.0
2512309,Princesa Isabel,PB,21283,2779,97350,-7.73175,-37.9886,7923932,13.1,1034657.0
2512507,Queimadas,PB,41049,5321,223697,-7.35029,-35.9031,10697934,13.0,1386726.0
2512903,Rio Tinto,PB,22976,3067,145583,-6.80383,-35.0776,4258049,13.3,568395.0
2513406,Santa Luzia,PB,14714,2244,93713,-6.86092,-36.9178,9195191,15.3,1402338.0
2513703,Santa Rita,PB,120289,12107,1244883,-7.11724,-34.9753,13541759,10.1,1362968.0
2513901,São Bento,PB,30879,3068,201309,-6.48529,-37.4488,11527748,9.9,1145346.0
2514503,São José de Piranhas,PB,19096,2870,108571,-7.1187,-38.502,8380843,15.0,1259584.0
2515302,Sapé,PB,50143,6252,269812,-7.09359,-35.228,9139917,12.5,1139596.0
2515500,Serra Branca,PB,12973,2377,69640,-7.48034,-36.666,8883074,18.3,1627616.0
2516003,Solânea,PB,26683,4154,128427,-6.75161,-35.6636,5084865,15.6,791610.0
2516102,Soledade,PB,13739,1812,90157,-7.05829,-36.3668,5903007,13.2,778532.0
2516201,Sousa,PB,65803,9019,549347,-6.75148,-38.2311,17718712,13.7,2428538.0
2516300,Sumé,PB,16055,2701,83976,-7.66206,-36.884,4650430,16.8,782361.0
2516607,Tavares,PB,14103,1762,62986,-7.62697,-37.8712,6411888,12.5,801088.0
2516706,Teixeira,PB,14153,1554,73317,-7.22104,-37.2525,7209143,11.0,791564.0
2516904,Uiraúna,PB,14584,2370,83299,-6.51504,-38.4128,18044121,16.3,2932293.0
2600054,Abreu e Lima,PE,94393,9024,853291,-7.90072,-34.8984,7699103,9.6,736037.0
2600104,Afogados da Ingazeira,PE,35088,4806,191904,-7.74312,-37.631,11005210,13.7,1507383.0
2600203,Afrânio,PE,17586,2036,82805,-8.51136,-41.0095,6449771,11.6,746715.0
2600302,Agrestina,PE,22679,3140,115743,-8.45966,-35.9447,6574207,13.8,910226.0
2600401,Água Preta,PE,33095,2917,141819,-8.70609,-35.5263,3388736,8.8,298684.0
2600500,Águas Belas,PE,40235,5162,168444,-9.11125,-37.1226,9673919,12.8,1241128.0
2600609,Alagoinha,PE,13753,1875,73735,-8.4665,-36.7788,1825100,13.6,248823.0
2600708,Aliança,PE,37415,4126,200480,-7.60398,-35.2227,6114563,11.0,674293.0
2600807,Altinho,PE,22345,3656,88401,-8.48482,-36.0644,9752137,16.4,1595606.0
2601102,Araripina,PE,77302,8192,462791,-7.57073,-40.494,9407174,10.6,996916.0
2601201,Arcoverde,PE,68793,8177,447133,-8.41519,-37.0577,19187788,11.9,2280734.0
2601409,Barreiros,PE,40732,3869,206234,-8.81605,-35.1832,10029837,9.5,952702.0
2601607,Belém do São Francisco,PE,20253,2186,99820,-8.75046,-38.9623,7738226,10.8,835223.0
2601706,Belo Jardim,PE,72432,8918,811692,-8.3313,-36.4258,13362750,12.3,1645254.0
2601904,Bezerros,PE,58657,8883,381017,-8.2328,-35.796,8852649,15.1,1340643.0
2602001,Bodocó,PE,35151,3612,144323,-7.77759,-39.9338,6965777,10.3,715780.0
2602100,Bom Conselho,PE,45503,5683,249367,-9.16919,-36.6857,6357510,12.5,794008.0
2602209,Bom Jardim,PE,37826,5323,177434,-7.79695,-35.5784,15252087,14.1,2146324.0
2602308,Bonito,PE,37556,4454,219701,-8.47163,-35.7292,7607572,11.9,902229.0
2602605,Brejo da Madre de Deus,PE,45180,4735,179427,-8.14933,-36.3741,9941362,10.5,1041885.0
2602803,Buíque,PE,52105,5321,223750,-8.61954,-37.1606,2828307,10.2,288829.0
2602902,Cabo de Santo Agostinho,PE,184862,15533,4422989,-8.28218,-35.0253,25445343,8.4,2138041.0
2603009,Cabrobó,PE,30873,2746,209180,-8.50548,-39.3094,4876125,8.9,433707.0
2603108,Cachoeirinha,PE,18814,2724,118080,-8.48668,-36.2402,10144234,14.5,1468741.0
2603454,Camaragibe,PE,144345,14079,816857,-8.02351,-34.9782,14796891,9.8,1443247.0
2603504,Camocim de São Félix,PE,17104,2336,86057,-8.35865,-35.7653,3752213,13.7,512463.0
2603702,Canhotinho,PE,24521,3184,98519,-8.87652,-36.1979,7968060,13.0,1034636.0
2603801,Capoeiras,PE,19593,2484,99091,-8.73423,-36.6306,3098731,12.7,392857.0
2604007,Carpina,PE,74848,7866,711552,-7.84566,-35.2514,19645879,10.5,2064644.0
2604106,Caruaru,PE,314815,33267,3417378,-8.28455,-35.9699,42305696,10.6,4470510.0
2604205,Catende,PE,37820,4006,213141,-8.67509,-35.7024,9023998,10.6,955847.0
2604502,Chã Grande,PE,20121,2414,122339,-8.23827,-35.4571,4868271,12.0,584067.0
2605004,Cupira,PE,23380,3265,128803,-8.62432,-35.9518,10699012,14.0,1494109.0
2605103,Custódia,PE,33855,4791,232834,-8.08546,-37.6443,8992861,14.2,1272627.0
2605202,Escada,PE,63517,5919,499040,-8.35672,-35.2241,10657871,9.3,993182.0
2605301,Exu,PE,31636,3974,141179,-7.50364,-39.7238,7834552,12.6,984148.0
2605459,Fernando de Noronha,PE,2630,85,57331,-3.8396,-32.4107,3767946,3.2,121778.0
2605608,Flores,PE,22169,3239,83016,-7.85842,-37.9715,5985431,14.6,874501.0
2605707,Floresta,PE,29285,2935,248290,-8.60307,-38.5687,5629077,10.0,564157.0
2605905,Gameleira,PE,27912,2291,114988,-8.5798,-35.3846,6877869,8.2,564531.0
2606002,Garanhuns,PE,129396,13999,1201193,-8.88243,-36.4966,29670122,10.8,3209930.0
2606200,Goiana,PE,75621,7666,901542,-7.5606,-34.9959,12883047,10.1,1306005.0
2606408,Gravatá,PE,76445,9313,548708,-8.21118,-35.5675,14402711,12.2,1754627.0
2606606,Ibimirim,PE,26954,2746,156426,-8.54026,-37.7032,7570101,10.2,771221.0
2606804,Igarassu,PE,101999,9477,1244019,-7.82881,-34.9013,12007862,9.3,1115683.0
2607208,Ipojuca,PE,80564,5355,5404486,-8.39303,-35.0609,11510772,6.6,765108.0
2607307,Ipubi,PE,28120,2659,131970,-7.64505,-40.1476,6044915,9.5,571601.0
2607505,Itaíba,PE,26256,3230,137037,-8.94569,-37.4173,3070727,12.3,377759.0
2607604,Ilha de Itamaracá,PE,21851,1661,108150,-7.74766,-34.8303,13246430,7.6,1006925.0
2607653,Itambé,PE,35398,3853,214506,-7.41403,-35.0963,12326227,10.9,1341685.0
2607703,Itapetim,PE,13881,2513,54543,-7.37178,-37.1863,4705917,18.1,851954.0
2607752,Itapissuma,PE,23769,1897,464780,-7.76798,-34.8971,5830649,8.0,465343.0
2607901,Jaboatão dos Guararapes,PE,643885,58164,7586200,-8.11298,-35.015,55621201,9.0,5024424.0
2608107,João Alfredo,PE,30743,4552,129161,-7.86565,-35.5787,12602420,14.8,1865993.0
2608503,Lagoa de Itaenga,PE,20659,2122,205505,-7.93005,-35.2874,7095344,10.3,728802.0
2608750,Lagoa Grande,PE,22760,1937,181352,-8.99452,-40.2767,3871984,8.5,329527.0
2608800,Lajedo,PE,36628,5106,191951,-8.65791,-36.3293,12305769,13.9,1715443.0
2608909,Limoeiro,PE,55439,7373,351643,-7.8726,-35.4402,21328873,13.3,2836591.0
2609402,Moreno,PE,56696,5603,342814,-8.10871,-35.0835,6275255,9.9,620154.0
2609501,Nazaré da Mata,PE,30790,3700,236000,-7.74149,-35.2193,13255758,12.0,1592930.0
2609600,Olinda,PE,377355,45100,3479823,-8.01017,-34.8545,45981718,12.0,5495556.0
2609709,Orobó,PE,22878,3442,126101,-7.74553,-35.5956,11791297,15.0,1774003.0
2609907,Ouricuri,PE,64358,7132,302985,-7.87918,-40.08,9712524,11.1,1076319.0
2610004,Palmares,PE,59503,5774,484107,-8.68423,-35.589,20639965,9.7,2002843.0
2610202,Panelas,PE,25645,3624,103495,-8.66121,-36.0125,9015548,14.1,1274024.0
2610400,Parnamirim,PE,20224,2332,103284,-8.08729,-39.5795,3842566,11.5,443081.0
2610608,Paudalho,PE,51357,4506,310726,-7.90287,-35.1716,8427973,8.8,739460.0
2610707,Paulista,PE,300226,30240,2155696,-7.93401,-34.8684,26118099,10.1,2630723.0
2610905,Pesqueira,PE,62931,7903,353864,-8.35797,-36.6978,12290044,12.6,1543408.0
2611002,Petrolândia,PE,32488,2767,932345,-9.06863,-38.3027,15075106,8.5,1283945.0
2611101,Petrolina,PE,293884,20888,3434155,-9.38866,-40.5027,32534524,7.1,2312413.0
2611606,Recife,PE,1534231,187293,33369681,-8.04666,-34.8771,201227914,12.2,24565127.0
2611804,Ribeirão,PE,44439,4386,265945,-8.50957,-35.3698,8917518,9.9,880133.0
2611903,Rio Formoso,PE,22151,1887,185176,-8.6592,-35.1532,6442228,8.5,548801.0
2612208,Salgueiro,PE,56629,5791,858894,-8.07373,-39.1247,14820787,10.2,1515605.0
2612406,Sanharó,PE,21955,2551,102757,-8.36097,-36.5696,10355343,11.6,1203210.0
2612505,Santa Cruz do Capibaribe,PE,87571,6045,727015,-7.94802,-36.2061,12083260,6.9,834104.0
2612604,Santa Maria da Boa Vista,PE,39435,3073,285502,-8.79766,-39.8241,6089075,7.8,474495.0
2613008,São Bento do Una,PE,53242,6085,348342,-8.52637,-36.4465,9038830,11.4,1033043.0
2613206,São João,PE,21312,2550,97079,-8.87576,-36.3653,3036922,12.0,363370.0
2613305,São Joaquim do Monte,PE,20488,2532,121436,-8.43196,-35.8035,5345326,12.4,660600.0
2613503,São José do Belmonte,PE,32606,4076,143041,-7.85723,-38.7577,9896723,12.5,1237166.0
2613602,São José do Egito,PE,31817,4881,162589,-7.46945,-37.274,10166482,15.3,1559625.0
2613701,São Lourenço da Mata,PE,102866,9695,553856,-8.00684,-35.0124,12339114,9.4,1162947.0
2613909,Serra Talhada,PE,79232,9100,746908,-7.98178,-38.289,17270672,11.5,1983581.0
2614105,Sertânia,PE,33782,4437,201493,-8.06847,-37.2684,8564055,13.1,1124821.0
2614204,Sirinhaém,PE,40276,2966,358797,-8.58778,-35.1126,5532744,7.4,407442.0
2614501,Surubim,PE,58515,7879,398380,-7.84746,-35.7481,15437323,13.5,2078624.0
2614600,Tabira,PE,26427,3577,113400,-7.58366,-37.5377,8454449,13.5,1144343.0
2614808,Tacaratu,PE,22068,2475,79676,-9.09798,-38.1504,4656867,11.2,522283.0
2615003,Taquaritinga do Norte,PE,24893,2902,119355,-7.89446,-36.0423,4950860,11.7,577166.0
2615300,Timbaúba,PE,53825,6241,471339,-7.50484,-35.3119,10779778,11.6,1249914.0
2615409,Toritama,PE,35542,2278,282076,-8.00955,-36.0637,9318737,6.4,597268.0
2615607,Trindade,PE,26116,2551,157479,-7.759,-40.2647,6710489,9.8,655478.0
2615706,Triunfo,PE,15001,2294,66198,-7.83272,-38.0978,14119230,15.3,2159157.0
2616001,Venturosa,PE,16052,1742,79376,-8.57885,-36.8742,2672146,10.9,289987.0
2616308,Vicência,PE,30732,2561,214258,-7.65655,-35.3139,6325256,8.3,527105.0
2616407,Vitória de Santo Antão,PE,129962,14505,1461947,-8.12819,-35.2976,18414999,11.2,2055290.0
2700102,Água Branca,AL,19372,2248,73774,-9.262,-37.938,6200860,11.6,719571.0
2700300,Arapiraca,AL,213974,19655,1908879,-9.75487,-36.6615,24882241,9.2,2285607.0
2700409,Atalaia,AL,44322,3690,290761,-9.5119,-36.0086,6597534,8.3,549274.0
2700706,Batalha,AL,17076,1675,68777,-9.6742,-37.133,3074867,9.8,301616.0
2701001,Boca da Mata,AL,25776,2096,197707,-9.64308,-36.2125,6672468,8.1,542578.0
2701407,Campo Alegre,AL,50816,3158,245301,-9.78451,-36.3525,3307747,6.2,205563.0
2701704,Capela,AL,17077,1684,113002,-9.41504,-36.0826,12594429,9.9,1241964.0
2702306,Coruripe,AL,52118,3726,703927,-10.1276,-36.1717,14322489,7.1,1023938.0
2702405,Delmiro Gouveia,AL,48096,4864,343733,-9.38534,-37.9987,22113516,10.1,2236364.0
2702900,Girau do Ponciano,AL,36600,3181,161139,-9.88404,-36.8316,9222262,8.7,801530.0
2703106,Igaci,AL,25188,2993,104989,-9.53768,-36.6372,3716974,11.9,441675.0
2704203,Limoeiro de Anadia,AL,26992,2586,97824,-9.74098,-36.5121,3006381,9.6,288030.0
2704302,Maceió,AL,931911,78841,12369801,-9.66599,-35.735,147342738,8.5,12465406.0
2704401,Major Isidoro,AL,18897,2055,86987,-9.53009,-36.992,4069337,10.9,442530.0
2704500,Maragogi,AL,28719,1990,200032,-9.00744,-35.2267,4343099,6.9,300942.0
2704708,Marechal Deodoro,AL,45910,3442,911886,-9.70971,-35.8967,10183811,7.5,763509.0
2704807,Maribondo,AL,13619,1629,63900,-9.58353,-36.3045,10009857,12.0,1197302.0
2705002,Mata Grande,AL,24698,2753,88104,-9.11824,-37.7323,4772127,11.1,531932.0
2705507,Murici,AL,26710,2029,141080,-9.30682,-35.9428,4968009,7.6,377390.0
2705705,Olho d'Água das Flores,AL,20364,2085,95979,-9.53686,-37.2971,8365701,10.2,856535.0
2706307,Palmeira dos Índios,AL,70368,8648,444152,-9.40568,-36.6328,15911386,12.3,1955458.0
2706406,Pão de Açúcar,AL,23811,2421,94900,-9.74032,-37.4403,6995324,10.2,711254.0
2706703,Penedo,AL,60356,5777,402529,-10.2874,-36.5819,13403547,9.6,1282926.0
2706901,Pilar,AL,33305,3039,323190,-9.60135,-35.9543,7939996,9.1,724505.0
2707305,Porto Calvo,AL,25708,2047,171182,-9.05195,-35.3987,11512867,8.0,916712.0
2707701,Rio Largo,AL,68481,5498,489700,-9.47783,-35.8394,16870351,8.0,1354437.0
2708006,Santana do Ipanema,AL,44927,4242,246216,-9.36999,-37.248,16897900,9.4,1595497.0
2708303,São José da Laje,AL,22686,2177,199791,-9.01278,-36.0515,5465075,9.6,524441.0
2708501,São Luís do Quitunde,AL,32412,2199,264999,-9.31816,-35.5606,6959378,6.8,472161.0
2708600,São Miguel dos Campos,AL,54577,3926,892341,-9.78301,-36.0971,16013138,7.2,1151906.0
2708808,São Sebastião,AL,32010,2924,180023,-9.93043,-36.559,4342578,9.1,396679.0
2709103,Taquarana,AL,19020,2131,93919,-9.64529,-36.4928,4233460,11.2,474317.0
2709152,Teotônio Vilela,AL,41152,2989,247037,-9.91656,-36.3492,7339525,7.3,533093.0
2709301,União dos Palmares,AL,62344,5998,437457,-9.15921,-36.0223,12729330,9.6,1224665.0
2709400,Viçosa,AL,25407,2441,115018,-9.36763,-36.2431,12167483,9.6,1169002.0
2800209,Aquidabã,SE,20056,2488,124432,-10.278,-37.0148,6280567,12.4,779121.0
2800308,Aracaju,SE,570657,53545,9603945,-10.9091,-37.0677,131755582,9.4,12362685.0
2800506,Areia Branca,SE,16857,1480,113431,-10.758,-37.3251,3657449,8.8,321114.0
2800605,Barra dos Coqueiros,SE,24954,1864,298387,-10.8996,-37.0323,2170753,7.5,162150.0
2800670,Boquim,SE,25533,2639,183937,-11.1397,-37.6195,4218427,10.3,436002.0
2801009,Campo do Brito,SE,16745,1989,107684,-10.7392,-37.4954,8818859,11.9,1047519.0
2801108,Canhoba,SE,3956,396,26214,-10.1365,-36.9806,955989,10.0,95696.0
2801207,Canindé de São Francisco,SE,24686,1474,1709831,-9.64882,-37.7923,3899860,6.0,232860.0
2801306,Capela,SE,30761,3065,247025,-10.5069,-37.0628,7469035,10.0,744208.0
2801405,Carira,SE,20001,2393,202939,-10.3524,-37.7002,3451919,12.0,413001.0
2801504,Carmópolis,SE,13492,826,556044,-10.6449,-36.9887,3776267,6.1,231189.0
2801702,Cristinápolis,SE,16516,1280,120218,-11.4668,-37.7585,2735462,7.8,212000.0
2802106,Estância,SE,64409,6115,1108185,-11.2659,-37.4484,13143215,9.5,1247819.0
2802304,Frei Paulo,SE,13874,1562,237702,-10.5513,-37.5279,5266296,11.3,592904.0
2802403,Gararu,SE,11405,1071,62029,-9.9722,-37.0869,1546240,9.4,145201.0
2802809,Indiaroba,SE,15831,1228,120232,-11.5157,-37.515,1347196,7.8,104501.0
2802908,Itabaiana,SE,86967,8370,870520,-10.6826,-37.4273,25279883,9.6,2433022.0
2803005,Itabaianinha,SE,38910,3395,232623,-11.2693,-37.7875,8692213,8.7,758418.0
2803104,Itabi,SE,4972,729,27666,-10.1248,-37.1056,1986243,14.7,291225.0
2803203,Itaporanga d'Ajuda,SE,30419,2506,523635,-10.99,-37.3078,4857244,8.2,400153.0
2803302,Japaratuba,SE,16864,1546,493889,-10.5849,-36.9418,4569198,9.2,418879.0
2803401,Japoatã,SE,12938,1318,106692,-10.3477,-36.8045,4058408,10.2,413432.0
2803500,Lagarto,SE,94861,10236,754701,-10.9136,-37.6689,15966098,10.8,1722826.0
2803609,Laranjeiras,SE,26902,1948,712380,-10.7981,-37.1731,5026271,7.2,363957.0
2803906,Malhador,SE,12042,1177,82186,-10.6649,-37.3004,4046654,9.8,395525.0
2804003,Maruim,SE,16343,1262,170273,-10.7308,-37.0856,16534203,7.7,1276765.0
2804409,Neópolis,SE,18506,1962,151248,-10.3215,-36.585,4796840,10.6,508559.0
2804458,Nossa Senhora Aparecida,SE,8508,1058,68091,-10.3944,-37.4517,2473793,12.4,307625.0
2804508,Nossa Senhora da Glória,SE,32497,3082,299772,-10.2158,-37.4211,8436533,9.5,800117.0
2804607,Nossa Senhora das Dores,SE,24576,2499,158683,-10.4854,-37.1963,6274020,10.2,637971.0
2804805,Nossa Senhora do Socorro,SE,160807,8288,1976864,-10.8468,-37.1231,6106044,5.2,314706.0
2805307,Pirambu,SE,8359,686,53808,-10.7215,-36.8544,1472889,8.2,120876.0
2805406,Poço Redondo,SE,30880,2444,150492,-9.80616,-37.6833,1992072,7.9,157663.0
2805505,Poço Verde,SE,21983,2874,139432,-10.7151,-38.1813,5444774,13.1,711836.0
2805604,Porto da Folha,SE,27146,2691,158290,-9.91626,-37.2842,4611437,9.9,457135.0
2805703,Propriá,SE,28451,2838,302299,-10.2138,-36.8442,10949203,10.0,1092188.0
2805802,Riachão do Dantas,SE,19386,2153,115121,-11.0729,-37.731,4188512,11.1,465174.0
2805901,Riachuelo,SE,9355,693,115348,-10.735,-37.1966,1748596,7.4,129533.0
2806008,Ribeirópolis,SE,17173,2167,133435,-10.5357,-37.438,8977255,12.6,1132808.0
2806107,Rosário do Catete,SE,9221,713,616807,-10.6904,-37.0357,2117710,7.7,163749.0
2806602,Santo Amaro das Brotas,SE,11410,1072,85352,-10.7892,-37.0564,2788469,9.4,261984.0
2806701,São Cristóvão,SE,78864,5586,577308,-11.0084,-37.2044,11420250,7.1,808905.0
2807105,Simão Dias,SE,38702,4707,290973,-10.7387,-37.8097,10654069,12.2,1295765.0
2807204,Siriri,SE,8004,800,136887,-10.5965,-37.1131,1971161,10.0,197018.0
2807402,Tobias Barreto,SE,48040,5517,284139,-11.1798,-37.9995,8933998,11.5,1025996.0
2807600,Umbaúba,SE,22434,1809,167657,-11.3809,-37.6623,4967195,8.1,400537.0
2900207,Abaré,BA,17064,1782,60849,-8.72073,-39.1162,2972576,10.4,310427.0
2900306,Acajutiba,BA,14643,1861,84408,-11.6575,-38.0197,6599586,12.7,838751.0
2900405,Água Fria,BA,15731,2372,61826,-11.8618,-38.7639,3362598,15.1,507030.0
2900702,Alagoinhas,BA,141905,15080,1833519,-12.1335,-38.4208,32047972,10.6,3405683.0
2900801,Alcobaça,BA,21261,2041,179465,-17.5195,-39.2036,4996084,9.6,479611.0
2901007,Amargosa,BA,34337,5293,183454,-13.0215,-39.602,14044458,15.4,2164933.0
2901106,Amélia Rodrigues,BA,25190,2659,150980,-12.3914,-38.7563,13739486,10.6,1450309.0
2901205,Anagé,BA,25516,4260,84387,-14.6151,-41.1356,9926192,16.7,1657218.0
2901304,Andaraí,BA,13955,1518,52726,-12.8049,-41.3297,2715584,10.9,295396.0
2901403,Angical,BA,14068,1639,66154,-12.0063,-44.7003,2689491,11.7,313341.0
2902104,Araci,BA,51651,5820,224189,-11.3253,-38.9584,10501221,11.3,1183271.0
2902500,Baianópolis,BA,13850,1617,66400,-12.3016,-44.5388,4071136,11.7,475309.0
2902609,Baixa Grande,BA,20060,2516,74142,-11.9519,-40.169,11910691,12.5,1493883.0
2902708,Barra,BA,49325,4438,174811,-11.0859,-43.1459,13108137,9.0,1179400.0
2902807,Barra da Estiva,BA,21187,1969,100798,-13.6237,-41.3347,12574741,9.3,1168625.0
2902906,Barra do Choça,BA,34763,3576,196340,-14.8654,-40.5791,3736741,10.3,384391.0
2903003,Barra do Mendes,BA,13987,2183,52025,-11.81,-42.059,19454059,15.6,3036263.0
2903201,Barreiras,BA,137339,8969,1921578,-12.1439,-44.9968,15957871,6.5,1042138.0
2903409,Belmonte,BA,21798,2365,165245,-15.8608,-38.8758,4585572,10.8,497517.0
2903508,Belo Campo,BA,16021,2216,59936,-15.0334,-41.2652,9014860,13.8,1246922.0
2903904,Bom Jesus da Lapa,BA,63453,5676,382897,-13.2506,-43.4108,14783046,8.9,1322374.0
2904100,Boquira,BA,22037,3307,75193,-12.8205,-42.7324,19003817,15.0,2851823.0
2904209,Botuporã,BA,11154,1512,43743,-13.3772,-42.5163,8274281,13.6,1121635.0
2904605,Brumado,BA,64602,8201,746514,-14.2021,-41.6696,32026067,12.7,4065598.0
2904704,Buerarema,BA,18605,2518,147324,-14.9595,-39.3028,5333016,13.5,721770.0
2904803,Caatiba,BA,11420,1282,42766,-14.9699,-40.4092,1564593,11.2,175640.0
2904902,Cachoeira,BA,32008,3537,247565,-12.5994,-38.9587,12923892,11.1,1428137.0
2905008,Caculé,BA,22230,3397,118071,-14.5003,-42.2229,11390389,15.3,1740583.0
2905206,Caetité,BA,47488,5851,291471,-14.0684,-42.4861,22889478,12.3,2820214.0
2905305,Cafarnaum,BA,17209,1784,61814,-11.6914,-41.4688,3769159,10.4,390736.0
2905602,Camacan,BA,31465,3532,189192,-15.4142,-39.4919,7430270,11.2,834061.0
2905701,Camaçari,BA,242489,14037,12446027,-12.6996,-38.3263,31740945,5.8,1837393.0
2905800,Camamu,BA,35168,3095,207649,-13.9398,-39.1071,9225670,8.8,811916.0
2906006,Campo Formoso,BA,66605,6969,385851,-10.5105,-40.32,9550080,10.5,999242.0
2906303,Canavieiras,BA,32191,3764,166785,-15.6722,-38.9536,6723097,11.7,786112.0
2906501,Candeias,BA,83158,6438,2191978,-12.6716,-38.5472,27226109,7.7,2107815.0
2906600,Candiba,BA,13210,1874,49627,-14.4097,-42.8667,7958614,14.2,1129027.0
2906709,Cândido Sales,BA,27909,3428,95369,-15.4993,-41.2414,7600803,12.3,933590.0
2906808,Cansanção,BA,32908,4318,130394,-10.6647,-39.4944,15495238,13.1,2033197.0
2906873,Capim Grosso,BA,26563,3185,146379,-11.3797,-40.0089,7924645,12.0,950194.0
2906907,Caravelas,BA,21414,2042,262803,-17.7268,-39.2597,5573639,9.5,531492.0
2907103,Carinhanha,BA,28380,2807,97879,-14.2985,-43.7724,7044776,9.9,696782.0
2907202,Casa Nova,BA,64920,6985,305579,-9.16408,-40.974,13420930,10.8,1444011.0
2907301,Castro Alves,BA,25408,3133,145480,-12.7579,-39.4248,14718600,12.3,1814916.0
2907509,Catu,BA,51033,4931,415103,-12.3513,-38.3791,20176536,9.7,1949533.0
2907707,Chorrochó,BA,10734,1414,42551,-8.9695,-39.0979,4005659,13.2,527669.0
2907806,Cícero Dantas,BA,32300,4496,140804,-10.5897,-38.3794,10957342,13.9,1525208.0
2907905,Cipó,BA,15752,1964,62261,-11.1032,-38.5179,8527205,12.5,1063194.0
2908002,Coaraci,BA,20964,3288,99420,-14.637,-39.5556,6735641,15.7,1056420.0
2908101,Cocos,BA,18153,2346,124756,-14.1814,-44.5352,5639132,12.9,728772.0
2908309,Conceição do Almeida,BA,17889,2625,72723,-12.7836,-39.1715,4235612,14.7,621526.0
2908408,Conceição do Coité,BA,62040,7308,361912,-11.56,-39.2808,16673995,11.8,1964113.0
2908507,Conceição do Jacuípe,BA,30123,3112,798233,-12.3268,-38.7684,9489476,10.3,980356.0
2908606,Conde,BA,23609,2371,101308,-11.8179,-37.6131,4314298,10.0,433275.0
2908705,Condeúba,BA,16898,2684,66870,-14.9022,-41.9718,15166971,15.9,2409051.0
2908903,Coração de Maria,BA,22401,2760,117536,-12.2333,-38.7487,8220656,12.3,1012857.0
2909109,Coribe,BA,14307,1960,72402,-13.8232,-44.4586,5096300,13.7,698172.0
2909307,Correntina,BA,31249,3767,571613,-13.3477,-44.6333,7174188,12.1,864833.0
2909604,Crisópolis,BA,20046,2607,88965,-11.5059,-38.1515,3757802,13.0,488705.0
2909802,Cruz das Almas,BA,58505,6085,507284,-12.6675,-39.1008,25853852,10.4,2689013.0
2909901,Curaçá,BA,32168,3637,150118,-8.98458,-39.8997,5394541,11.3,609921.0
2910008,Dário Meira,BA,12836,1590,43670,-14.4229,-39.9031,1940889,12.4,240419.0
2910057,Dias d'Ávila,BA,66359,4020,2206179,-12.6187,-38.2926,13709579,6.1,830520.0
2910404,Encruzilhada,BA,23766,2419,113385,-15.5302,-40.9124,3645425,10.2,371046.0
2910503,Entre Rios,BA,39817,3270,371221,-11.9392,-38.0871,10779038,8.2,885236.0
2910602,Esplanada,BA,32802,3092,550518,-11.7942,-37.9432,8315845,9.4,783873.0
2910701,Euclides da Cunha,BA,56289,7525,424516,-10.5078,-39.0153,15250420,13.4,2038754.0
2910727,Eunápolis,BA,100113,8321,1372266,-16.3715,-39.5821,12958665,8.3,1077073.0
2910800,Feira de Santana,BA,556310,50510,7179906,-12.2664,-38.9663,66826259,9.1,6067470.0
2911105,Formosa do Rio Preto,BA,22493,1789,651069,-11.0328,-45.193,7101651,8.0,564836.0
2911204,Gandu,BA,30336,2683,194280,-13.7441,-39.4747,8742909,8.8,773247.0
2911600,Governador Mangabeira,BA,19810,2139,101472,-12.5994,-39.0412,6231121,10.8,672810.0
2911709,Guanambi,BA,78833,8842,544907,-14.2231,-42.7799,21436953,11.2,2404393.0
2911907,Iaçu,BA,25726,3422,152397,-12.7666,-40.2056,7687925,13.3,1022626.0
2912004,Ibiassucê,BA,10062,1561,43336,-14.2711,-42.257,7114382,15.5,1103712.0
2912103,Ibicaraí,BA,24272,3642,111565,-14.8579,-39.5914,7715997,15.0,1157781.0
2912202,Ibicoara,BA,17282,1056,198978,-13.4059,-41.284,5660599,6.1,345885.0
2912400,Ibipeba,BA,17008,2155,63617,-11.6438,-42.0195,5146874,12.7,652135.0
2912905,Ibirataia,BA,18943,2431,121631,-14.0643,-39.6459,4037886,12.8,518191.0
2913200,Ibotirama,BA,25424,2998,172600,-12.1779,-43.2167,8317865,11.8,980843.0
2913507,Iguaí,BA,25705,3456,99809,-14.7528,-40.0894,4110735,13.4,552682.0
2913606,Ilhéus,BA,183624,19306,2567197,-14.793,-39.046,26080313,10.5,2742052.0
2913705,Inhambupe,BA,36306,3877,263877,-11.781,-38.355,15108266,10.7,1613363.0
2913804,Ipecaetá,BA,15331,2026,52462,-12.3028,-39.3069,4376074,13.2,578301.0
2913903,Ipiaú,BA,44390,5417,265784,-14.1226,-39.7353,11889986,12.2,1450959.0
2914000,Ipirá,BA,59343,8135,300002,-12.1561,-39.7359,15784837,13.7,2163855.0
2914109,Ipupiara,BA,9285,1453,35398,-11.8219,-42.6179,5070687,15.6,793507.0
2914406,Iraquara,BA,22601,2550,102188,-12.2429,-41.6155,11082691,11.3,1250425.0
2914505,Irará,BA,27466,3531,130201,-12.0504,-38.7631,7459501,12.9,958986.0
2914604,Irecê,BA,66181,5797,540331,-11.3033,-41.8535,20220388,8.8,1771167.0
2914653,Itabela,BA,28374,2342,204906,-16.5732,-39.5593,2997623,8.3,247425.0
2914703,Itaberaba,BA,61621,7413,364347,-12.5242,-40.3059,17074001,12.0,2054001.0
2914802,Itabuna,BA,204459,23234,2444702,-14.7876,-39.2781,28481004,11.4,3236481.0
2914901,Itacaré,BA,24171,1809,148602,-14.2784,-38.9959,4326465,7.5,323800.0
2915205,Itagibá,BA,15193,2065,383953,-14.2782,-39.8449,2735637,13.6,371822.0
2915304,Itagimirim,BA,7110,960,55132,-16.0819,-39.6133,5311790,13.5,717204.0
2915403,Itaju do Colônia,BA,7309,858,42023,-15.1366,-39.7283,1977631,11.7,232153.0
2915502,Itajuípe,BA,21081,2605,201140,-14.6788,-39.3698,5199055,12.4,642452.0
2915601,Itamaraju,BA,63048,6746,491522,-17.0378,-39.5386,11116458,10.7,1189437.0
2915809,Itambé,BA,23089,2668,121312,-15.2429,-40.63,7463737,11.6,862456.0
2916005,Itanhém,BA,20210,3261,126610,-17.1642,-40.3321,8807857,16.1,1421198.0
2916104,Itaparica,BA,20685,2100,127574,-12.8932,-38.68,8488265,10.2,861753.0
2916401,Itapetinga,BA,68255,7574,1022600,-15.2475,-40.2482,16085715,11.1,1784971.0
2916500,Itapicuru,BA,32261,3684,205373,-11.3088,-38.2262,2922516,11.4,333733.0
2916807,Itarantim,BA,18539,2401,100526,-15.6528,-40.065,4819962,13.0,624237.0
2916906,Itiruçu,BA,12678,1732,58510,-13.529,-40.1472,3891733,13.7,531668.0
2917003,Itiúba,BA,36113,4660,135693,-10.6948,-39.8446,10924234,12.9,1409657.0
2917102,Itororó,BA,19914,2943,92759,-15.11,-40.0684,5274347,14.8,779472.0
2917201,Ituaçu,BA,18127,2421,79280,-13.8107,-41.3003,10076865,13.4,1345843.0
2917300,Ituberá,BA,26581,2393,177719,-13.7249,-39.1481,10496614,9.0,944976.0
2917508,Jacobina,BA,79177,9551,666035,-11.1812,-40.5117,22815231,12.1,2752166.0
2917607,Jaguaquara,BA,50992,6048,257037,-13.5248,-39.964,14380829,11.9,1705665.0
2917706,Jaguarari,BA,30332,3849,491841,-10.2569,-40.1999,10353735,12.7,1313844.0
2918001,Jequié,BA,151856,18302,1255503,-13.8509,-40.0877,26911611,12.1,3243443.0
2918100,Jeremoabo,BA,37680,4572,178176,-10.0685,-38.3471,7304531,12.1,886314.0
2918407,Juazeiro,BA,197912,16604,1799721,-9.41622,-40.5033,26387532,8.4,2213805.0
2919157,Lapão,BA,25646,2694,107565,-11.3851,-41.8286,3633799,10.5,381715.0
2919207,Lauro de Freitas,BA,162335,11267,3652178,-12.8978,-38.321,28999545,6.9,2012738.0
2919306,Lençóis,BA,10327,898,54475,-12.5616,-41.3928,4373929,8.7,380342.0
2919405,Licínio de Almeida,BA,12311,1871,48840,-14.6842,-42.5095,6734383,15.2,1023477.0
2919504,Livramento de Nossa Senhora,BA,42693,5438,284508,-13.6369,-41.8432,18836363,12.7,2399273.0
2919553,Luís Eduardo Magalhães,BA,60040,1497,1899745,-12.0956,-45.7866,7320548,2.5,182526.0
2919702,Macarani,BA,17093,2151,80140,-15.5646,-40.4209,5990832,12.6,753892.0
2919801,Macaúbas,BA,47051,6112,159329,-13.0186,-42.6945,29262927,13.0,3801301.0
2919926,Madre de Deus,BA,17376,1307,347394,-12.7446,-38.6153,4251624,7.5,319802.0
2920007,Maiquinique,BA,8782,1076,63659,-15.624,-40.2587,1753905,12.3,214894.0
2920106,Mairi,BA,19316,3031,77514,-11.7107,-40.1437,15723742,15.7,2467315.0
2920304,Malhada de Pedras,BA,8468,1227,30768,-14.3847,-41.8842,3821064,14.5,553666.0
2920502,Maracás,BA,24613,3436,112595,-13.4355,-40.4323,14414261,14.0,2012246.0
2920601,Maragogipe,BA,42800,4774,197614,-12.776,-38.9175,11082870,11.2,1236206.0
2921005,Mata de São João,BA,40017,3369,613777,-12.5307,-38.3009,11675341,8.4,982938.0
2921104,Medeiros Neto,BA,21551,3025,160947,-17.3707,-40.2238,5660148,14.0,794485.0
2921203,Miguel Calmon,BA,26475,3652,120970,-11.4299,-40.6031,10856708,13.8,1497590.0
2921302,Milagres,BA,10306,1335,54530,-12.8646,-39.8611,6035507,13.0,781817.0
2921500,Monte Santo,BA,52338,7205,184325,-10.4374,-39.3321,8425069,13.8,1159819.0
2921708,Morro do Chapéu,BA,35131,3971,164559,-11.5488,-41.1565,4284318,11.3,484274.0
2921807,Mortugaba,BA,12477,2071,44834,-15.0225,-42.3727,6986230,16.6,1159612.0
2921906,Mucugê,BA,10523,1205,181889,-13.0053,-41.3703,29889525,11.5,3422682.0
2922003,Mucuri,BA,36014,2554,1264665,-18.0754,-39.5565,6115358,7.1,433682.0
2922102,Mundo Novo,BA,24395,3175,104003,-11.8541,-40.4714,5993873,13.0,780100.0
2922300,Muritiba,BA,28889,3415,158542,-12.6329,-38.9921,7388084,11.8,873353.0
2922409,Mutuípe,BA,21449,2535,113350,-13.2284,-39.5044,16558838,11.8,1957045.0
2922508,Nazaré,BA,27274,3159,154392,-13.0235,-39.0108,13296492,11.6,1540061.0
2922607,Nilo Peçanha,BA,12526,1200,66600,-13.604,-39.1091,4462858,9.6,427545.0
2922706,Nova Canaã,BA,16713,2468,61981,-14.7912,-40.1458,4370654,14.8,645412.0
2922904,Nova Soure,BA,24136,3359,94758,-11.2329,-38.4871,9115028,13.9,1268536.0
2923001,Nova Viçosa,BA,38470,3480,273964,-17.8926,-39.3743,4147030,9.0,375141.0
2923100,Olindina,BA,24943,2979,108338,-11.3497,-38.3379,6910522,11.9,825340.0
2923209,Oliveira dos Brejinhos,BA,21831,3414,84340,-12.3132,-42.8969,9448964,15.6,1477659.0
2923407,Palmas de Monte Alto,BA,20775,2155,81447,-14.2676,-43.1609,5180530,10.4,537379.0
2923506,Palmeiras,BA,8322,1133,36748,-12.5059,-41.5809,5484885,13.6,746741.0
2923605,Paramirim,BA,21001,3393,87927,-13.4388,-42.2395,17186271,16.2,2776678.0
2923704,Paratinga,BA,29504,3490,108817,-12.687,-43.1798,4455401,11.8,527025.0
2923803,Paripiranga,BA,27778,3782,150108,-10.6859,-37.8626,12907775,13.6,1757405.0
2924009,Paulo Afonso,BA,108367,11681,2124083,-9.3983,-38.2216,29862218,10.8,3218882.0
2924207,Pedro Alexandre,BA,16995,1405,72659,-10.012,-37.8932,1053514,8.3,87095.0
2924306,Piatã,BA,17982,2806,60152,-13.1465,-41.7702,8471145,15.6,1321879.0
2924405,Pilão Arcado,BA,32860,3505,111480,-10.0051,-42.4936,6875496,10.7,733372.0
2924504,Pindaí,BA,15623,2085,52108,-14.4921,-42.686,4558385,13.3,608349.0
2924603,Pindobaçu,BA,20121,2305,69538,-10.7433,-40.3675,5514440,11.5,631717.0
2924801,Piritiba,BA,22390,3050,82413,-11.73,-40.5587,8010638,13.6,1091221.0
2924900,Planaltino,BA,8822,1187,33865,-13.2618,-40.3695,2552680,13.5,343463.0
2925006,Planalto,BA,24481,3188,103456,-14.6654,-40.4718,7077373,13.0,921640.0
2925105,Poções,BA,44677,6256,217290,-14.5234,-40.3634,15381726,14.0,2153862.0
2925204,Pojuca,BA,33066,2542,939102,-12.4303,-38.3374,15643579,7.7,1202624.0
2925303,Porto Seguro,BA,125942,6874,1181263,-16.4435,-39.0643,14522398,5.5,792642.0
2925402,Potiraguá,BA,9807,1228,51082,-15.5943,-39.8638,2059673,12.5,257905.0
2925501,Prado,BA,27596,2623,255388,-17.3364,-39.2227,6462535,9.5,614264.0
2925600,Presidente Dutra,BA,13750,1669,56193,-11.2923,-41.9843,5438881,12.1,660181.0
2925709,Presidente Jânio Quadros,BA,13652,2058,42657,-14.6885,-41.6798,6952028,15.1,1047998.0
2925808,Queimadas,BA,24602,3461,101896,-10.9736,-39.6293,8827315,14.1,1241823.0
2925907,Quijingue,BA,27228,3855,111301,-10.7505,-39.2137,4242389,14.2,600647.0
2926004,Remanso,BA,38957,4620,190746,-9.61944,-42.0848,12859139,11.9,1524995.0
2926202,Riachão das Neves,BA,21937,2474,263605,-11.7508,-44.9143,3818979,11.3,430695.0
2926301,Riachão do Jacuípe,BA,33172,4883,143816,-11.8067,-39.3818,17660460,14.7,2599663.0
2926400,Riacho de Santana,BA,30646,4002,115778,-13.6059,-42.9397,28965509,13.1,3782548.0
2926608,Ribeira do Pombal,BA,47518,5749,265024,-10.8373,-38.5382,15606704,12.1,1888189.0
2926707,Rio de Contas,BA,13002,2373,59188,-13.5852,-41.8048,31698798,18.3,5785360.0
2926806,Rio do Antônio,BA,14815,2037,53740,-14.4071,-42.0721,8679846,13.7,1193442.0
2926905,Rio do Pires,BA,11918,1869,44364,-13.1185,-42.2902,11241705,15.7,1762942.0
2927002,Rio Real,BA,37164,3773,647029,-11.4814,-37.9332,7785772,10.2,790435.0
2927101,Rodelas,BA,7775,731,33519,-8.85021,-38.78,6928118,9.4,651377.0
2927200,Ruy Barbosa,BA,29861,4236,156713,-12.2816,-40.4931,10579984,14.2,1500848.0
2927408,Salvador,BA,2669846,251679,40762687,-12.9718,-38.5011,182310402,9.4,17185897.0
2927507,Santa Bárbara,BA,19064,2640,91034,-11.9515,-38.9681,5127258,13.8,710027.0
2927606,Santa Brígida,BA,15060,1845,59015,-9.73227,-38.1209,1797873,12.3,220257.0
2927705,Santa Cruz Cabrália,BA,26171,1889,172354,-16.2825,-39.0295,5376364,7.2,388061.0
2927804,Santa Cruz da Vitória,BA,6673,813,32213,-14.964,-39.8115,1292546,12.2,157476.0
2928000,Santaluz,BA,33838,4111,138180,-11.2508,-39.375,14211283,12.1,1726538.0
2928109,Santa Maria da Vitória,BA,40287,4646,220008,-13.3859,-44.2011,10522702,11.5,1213505.0
2928208,Santana,BA,24741,3448,125845,-12.9792,-44.0506,6079950,13.9,847325.0
2928406,Santa Rita de Cássia,BA,26240,3289,106272,-11.0063,-44.5255,11526971,12.5,1444825.0
2928604,Santo Amaro,BA,57780,6385,438784,-12.5472,-38.7137,20604292,11.1,2276885.0
2928703,Santo Antônio de Jesus,BA,90952,8506,1088686,-12.9614,-39.2584,26084818,9.4,2439501.0
2928802,Santo Estêvão,BA,47880,5480,390081,-12.428,-39.2505,21554513,11.4,2466974.0
2928901,São Desidério,BA,27635,2164,959035,-12.3572,-44.9769,6615814,7.8,518061.0
2929008,São Félix,BA,14098,1379,95460,-12.6104,-38.9727,8755243,9.8,856397.0
2929107,São Felipe,BA,20305,2491,103574,-12.8394,-39.0893,9602149,12.3,1177983.0
2929206,São Francisco do Conde,BA,33183,2450,5323914,-12.6183,-38.6786,11487958,7.4,848190.0
2929305,São Gonçalo dos Campos,BA,33283,3270,226352,-12.4331,-38.9663,14681111,9.8,1442395.0
2929503,São Sebastião do Passé,BA,42140,3966,487337,-12.5123,-38.4905,14229233,9.4,1339182.0
2929602,Sapeaçu,BA,16585,2042,104587,-12.7208,-39.1824,6070137,12.3,747375.0
2929800,Saúde,BA,11845,1629,44778,-10.9428,-40.4155,2685707,13.8,369356.0
2929909,Seabra,BA,41798,4855,231049,-12.4169,-41.7722,24228159,11.6,2814195.0
2930105,Senhor do Bonfim,BA,74419,9057,522537,-10.4594,-40.1865,24449533,12.2,2975576.0
2930154,Serra do Ramalho,BA,31638,3280,124793,-13.5659,-43.5929,3516808,10.4,364597.0
2930204,Sento Sé,BA,37425,3364,155059,-9.74138,-41.8786,5769668,9.0,518615.0
2930303,Serra Dourada,BA,18112,2380,85458,-12.759,-43.9504,7478766,13.1,982744.0
2930402,Serra Preta,BA,15401,2587,54697,-12.156,-39.3305,10272934,16.8,1725607.0
2930501,Serrinha,BA,76716,7596,530969,-11.6584,-39.01,33283770,9.9,3295577.0
2930709,Simões Filho,BA,117995,7494,3254039,-12.7866,-38.4029,18449864,6.4,1171772.0
2930774,Sobradinho,BA,21988,2264,452918,-9.45024,-40.8145,3042800,10.3,313303.0
2930808,Souto Soares,BA,15899,1781,55129,-12.088,-41.6427,8693380,11.2,973829.0
2931004,Tanhaçu,BA,20013,2665,85353,-14.0197,-41.2473,15553267,13.3,2071127.0
2931202,Taperoá,BA,18699,1604,106455,-13.5321,-39.1009,5849759,8.6,501792.0
2931301,Tapiramutá,BA,16516,1400,102399,-11.8475,-40.7927,3832370,8.5,324856.0
2931350,Teixeira de Freitas,BA,138039,12392,1302925,-17.5399,-39.74,15960339,9.0,1432787.0
2931608,Teolândia,BA,14836,1131,68963,-13.5896,-39.484,3409188,7.6,259894.0
2931905,Tucano,BA,52411,7137,233602,-10.9584,-38.7894,8399550,13.6,1143798.0
2932002,Uauá,BA,24294,3706,97952,-9.83325,-39.4794,11348656,15.3,1731214.0
2932101,Ubaíra,BA,19750,2613,92788,-13.2714,-39.666,6757365,13.2,894025.0
2932200,Ubaitaba,BA,20691,2376,137939,-14.303,-39.3222,7986762,11.5,917140.0
2932309,Ubatã,BA,25004,2790,109594,-14.2063,-39.5207,5572232,11.2,621762.0
2932507,Una,BA,24036,2455,231739,-15.2791,-39.0765,5169316,10.2,527986.0
2932606,Urandi,BA,16466,2264,105839,-14.7678,-42.6498,9052148,13.7,1244629.0
2932705,Uruçuca,BA,19827,2320,103608,-14.5963,-39.2851,2943287,11.7,344400.0
2932804,Utinga,BA,18173,1818,75856,-12.0783,-41.0954,7351319,10.0,735415.0
2932903,Valença,BA,88583,8209,768018,-13.3669,-39.073,19893734,9.3,1843555.0
2933000,Valente,BA,24560,2827,111662,-11.4062,-39.457,13666231,11.5,1573063.0
2933208,Vera Cruz,BA,37451,3765,275129,-12.9568,-38.6153,3631204,10.1,365050.0
2933307,Vitória da Conquista,BA,306731,31498,3506824,-14.8615,-40.8442,46732240,10.3,4798902.0
2933406,Wagner,BA,8983,1082,40669,-12.2819,-41.1715,6104009,12.0,735226.0
2933455,Wanderley,BA,12485,1266,67018,-12.1144,-43.8958,2768225,10.1,280703.0
2933505,Wenceslau Guimarães,BA,22189,1817,162451,-13.6908,-39.4762,6178639,8.2,505953.0
2933604,Xique-Xique,BA,45536,4870,197973,-10.823,-42.7245,13053643,10.7,1396066.0
3100203,Abaeté,MG,22690,3614,226325,-19.1551,-45.4444,15195286,15.9,2420263.0
3100302,Abre Campo,MG,13294,1783,106814,-20.2996,-42.4743,10240011,13.4,1373397.0
3100609,Água Boa,MG,15195,1673,74170,-17.9914,-42.3806,1365305,11.0,150323.0
3100906,Águas Formosas,MG,18474,2557,98201,-17.0802,-40.9384,3703406,13.8,512591.0
3101003,Águas Vermelhas,MG,12722,1503,132152,-15.7431,-41.4571,2962482,11.8,349993.0
3101102,Aimorés,MG,24945,3739,254296,-19.5007,-41.0746,11755561,15.0,1762038.0
3101201,Aiuruoca,MG,6150,944,47132,-21.9736,-44.6042,12208666,15.3,1873981.0
3101508,Além Paraíba,MG,34339,5000,564993,-21.8797,-42.7176,16809476,14.6,2447578.0
3101607,Alfenas,MG,73727,9180,1284402,-21.4256,-45.9477,21204602,12.5,2640257.0
3101706,Almenara,MG,38767,4792,264551,-16.1785,-40.6942,7865190,12.4,972218.0
3101904,Alpinópolis,MG,18478,2163,203288,-20.8631,-46.3878,8116476,11.7,950099.0
3102001,Alterosa,MG,13717,2076,108556,-21.2488,-46.1387,9924553,15.1,1502032.0
3102100,Alto Rio Doce,MG,12159,1971,79308,-21.0281,-43.4067,19522234,16.2,3164596.0
3102308,Alvinópolis,MG,15261,2322,153923,-20.1098,-43.0535,11393526,15.2,1733554.0
3102605,Andradas,MG,37233,4793,483673,-22.0695,-46.5724,18781462,12.9,2417736.0
3102704,Cachoeira de Pajeú,MG,8957,1273,62465,-15.9688,-41.4948,1453810,14.2,206621.0
3102803,Andrelândia,MG,12167,1979,97386,-21.7411,-44.3117,12175719,16.3,1980418.0
3102902,Antônio Carlos,MG,11103,1428,104533,-21.321,-43.7451,9076161,12.9,1167320.0
3103009,Antônio Dias,MG,9565,1156,76643,-19.6491,-42.8732,3440476,12.1,415807.0
3103405,Araçuaí,MG,35992,4887,195413,-16.8523,-42.0637,18382239,13.6,2495944.0
3103504,Araguari,MG,109662,14468,2147789,-18.6456,-48.1934,23793800,13.2,3139179.0
3103751,Araporã,MG,6141,570,996131,-18.4357,-49.1847,3180927,9.3,295250.0
3103900,Araújos,MG,7883,877,116157,-19.9405,-45.1671,7126121,11.1,792796.0
3104007,Araxá,MG,93531,10780,2573183,-19.5902,-46.9438,21751760,11.5,2507019.0
3104106,Arceburgo,MG,9502,1301,174256,-21.359,-46.9401,7564829,13.7,1035765.0
3104205,Arcos,MG,36580,4411,639616,-20.2863,-45.5373,17199752,12.1,2074032.0
3104304,Areado,MG,13722,2062,121198,-21.3572,-46.1421,15065663,15.0,2263912.0
3104502,Arinos,MG,17674,2049,125591,-15.9187,-46.1043,3720582,11.6,431338.0
3104601,Astolfo Dutra,MG,13049,1898,162260,-21.3184,-42.8572,17041947,14.5,2478781.0
3104700,Ataléia,MG,14445,2166,70487,-18.0438,-41.1149,6384381,15.0,957326.0
3104908,Baependi,MG,18307,2708,149944,-21.957,-44.8874,15343210,14.8,2269592.0
3105103,Bambuí,MG,22734,3678,244317,-20.0166,-45.9754,16339774,16.2,2643516.0
3105400,Barão de Cocais,MG,28430,2661,920143,-19.9389,-43.4755,8982151,9.4,840714.0
3105608,Barbacena,MG,126190,16124,1578867,-21.2214,-43.7703,48302879,12.8,6171928.0
3105905,Barroso,MG,19599,2224,264633,-21.1907,-43.972,11506975,11.3,1305756.0
3106002,Bela Vista de Minas,MG,10004,1189,115151,-19.8302,-43.0922,3030120,11.9,360137.0
3106200,Belo Horizonte,MG,2367032,304677,59203074,-19.9102,-43.9266,258524495,12.9,33276469.0
3106309,Belo Oriente,MG,23397,2179,1223910,-19.2199,-42.4828,6772824,9.3,630764.0
3106507,Berilo,MG,12300,1350,52980,-16.9567,-42.4606,14927895,11.0,1638428.0
3106705,Betim,MG,377769,26625,23384913,-19.9668,-44.2008,58905230,7.0,4151616.0
3106903,Bicas,MG,13642,2260,120560,-21.7232,-43.056,18120618,16.6,3001950.0
3107109,Boa Esperança,MG,38488,5056,427747,-21.0927,-45.5612,14423801,13.1,1894792.0
3107307,Bocaiúva,MG,46616,4837,393255,-17.1135,-43.8104,8769303,10.4,909926.0
3107406,Bom Despacho,MG,45578,5543,630341,-19.7386,-45.2622,16845263,12.2,2048648.0
3107604,Bom Jesus da Penha,MG,3887,613,57109,-21.0148,-46.5174,3690291,15.8,581978.0
3107802,Bom Jesus do Galho,MG,15359,2366,73893,-19.836,-42.3165,6519393,15.4,1004290.0
3108008,Bom Sucesso,MG,17243,2673,162874,-21.0329,-44.7537,11545583,15.5,1789790.0
3108107,Bonfim,MG,6818,1372,42287,-20.3302,-44.2366,7708864,20.1,1551270.0
3108206,Bonfinópolis de Minas,MG,5860,825,89843,-16.568,-45.9839,5792524,14.1,815500.0
3108305,Borda da Mata,MG,17107,2673,160878,-22.2707,-46.1653,20121615,15.6,3144039.0
3108404,Botelhos,MG,14892,2182,118635,-21.6412,-46.391,6717560,14.7,984268.0
3108552,Brasilândia de Minas,MG,14217,1075,102189,-16.9999,-46.0081,6379651,7.6,482389.0
3108602,Brasília de Minas,MG,31213,3881,159396,-16.2104,-44.4299,10409808,12.4,1294347.0
3108909,Brazópolis,MG,14661,2424,106646,-22.4743,-45.6166,20040948,16.5,3313502.0
3109006,Brumadinho,MG,33866,3865,1335180,-20.151,-44.2007,18403217,11.4,2100290.0
3109105,Bueno Brandão,MG,10892,1673,78512,-22.4383,-46.3491,9806054,15.4,1506200.0
3109204,Buenópolis,MG,10292,1525,63642,-17.8744,-44.1775,8436904,14.8,1250124.0
3109303,Buritis,MG,22695,2206,336349,-15.6218,-46.4221,5267409,9.7,512003.0
3109402,Buritizeiro,MG,26922,2227,270279,-17.3656,-44.9606,3105701,8.3,256905.0
3109501,Cabo Verde,MG,13823,1600,133286,-21.4699,-46.3919,8388588,11.6,970972.0
3109600,Cachoeira da Prata,MG,3654,626,31706,-19.521,-44.4544,2904010,17.1,497512.0
3109709,Cachoeira de Minas,MG,11017,1585,122947,-22.3511,-45.7809,17217183,14.4,2477011.0
3110004,Caeté,MG,40730,5160,317354,-19.8826,-43.6704,16446075,12.7,2083519.0
3110301,Caldas,MG,13600,2274,128849,-21.9183,-46.3843,14805676,16.7,2475596.0
3110509,Camanducaia,MG,21028,2424,354581,-22.7515,-46.1494,9789783,11.5,1128516.0
3110608,Cambuí,MG,26440,3609,471270,-22.6115,-46.0572,20296831,13.6,2770471.0
3110707,Cambuquira,MG,12585,1906,133037,-21.854,-45.2896,11888184,15.1,1800467.0
3110806,Campanário,MG,3562,465,28411,-18.2427,-41.7355,1274518,13.1,166381.0
3110905,Campanha,MG,15416,2111,164583,-21.836,-45.4004,11000729,13.7,1506392.0
3111002,Campestre,MG,20674,3003,204026,-21.7079,-46.2381,13399507,14.5,1946344.0
3111101,Campina Verde,MG,19310,2996,283776,-19.5382,-49.4862,6550899,15.5,1016390.0
3111200,Campo Belo,MG,51544,7623,524701,-20.8932,-45.2699,25479720,14.8,3768274.0
3111408,Campo Florido,MG,6867,707,205510,-19.7631,-48.5716,3012468,10.3,310152.0
3111507,Campos Altos,MG,14192,1430,170941,-19.6914,-46.1725,4679132,10.1,471474.0
3111606,Campos Gerais,MG,27591,3274,282617,-21.237,-45.7569,12276619,11.9,1456767.0
3111804,Canápolis,MG,11365,1325,208976,-18.7212,-49.2035,2988532,11.7,348421.0
3112000,Candeias,MG,14595,2346,128161,-20.7692,-45.2765,12181085,16.1,1957987.0
3112307,Capelinha,MG,34780,2947,256076,-17.6888,-42.5147,10245426,8.5,868122.0
3112406,Capetinga,MG,7089,1053,59624,-20.6163,-47.0571,5249884,14.9,779818.0
3112604,Capinópolis,MG,15280,1995,206240,-18.6862,-49.5706,5045426,13.1,658745.0
3113206,Carandaí,MG,23346,2788,397736,-20.9566,-43.811,17225217,11.9,2057051.0
3113305,Carangola,MG,32296,5025,291209,-20.7343,-42.0313,20094851,15.6,3126599.0
3113404,Caratinga,MG,85177,10535,859125,-19.7868,-42.1292,21586814,12.4,2669935.0
3113503,Carbonita,MG,9148,1098,52832,-17.5255,-43.0137,11218277,12.0,1346488.0
3113602,Careaçu,MG,6298,810,69178,-22.0424,-45.696,6082480,12.9,782281.0
3113701,Carlos Chagas,MG,20069,3211,254137,-17.6973,-40.7723,6428615,16.0,1028566.0
3113909,Carmo da Cachoeira,MG,11815,1301,116838,-21.4633,-45.2201,5954983,11.0,655729.0
3114006,Carmo da Mata,MG,10912,1610,90426,-20.5575,-44.8735,8538396,14.8,1259789.0
3114204,Carmo do Cajuru,MG,20012,2521,227891,-20.1912,-44.7664,9425569,12.6,1187381.0
3114303,Carmo do Paranaíba,MG,29635,3992,359631,-18.991,-46.3167,13091055,13.5,1763438.0
3114402,Carmo do Rio Claro,MG,20426,2749,222871,-20.9736,-46.1149,8033858,13.5,1081224.0
3114501,Carmópolis de Minas,MG,17029,2045,202127,-20.5396,-44.6336,19608360,12.0,2354753.0
3114550,Carneirinho,MG,9471,1323,167393,-19.6987,-50.6894,2428657,14.0,339258.0
3115102,Cássia,MG,17407,2601,190153,-20.5831,-46.9201,8885851,14.9,1327747.0
3115300,Cataguases,MG,69722,10065,1015919,-21.3924,-42.6896,25449150,14.4,3673815.0
3115508,Caxambu,MG,21646,3298,198695,-21.9753,-44.9319,12253511,15.2,1866954.0
3115805,Centralina,MG,10266,1548,92196,-18.5852,-49.2014,3742953,15.1,564396.0
3116100,Chapada do Norte,MG,15189,1343,53142,-17.0881,-42.5392,5947057,8.8,525834.0
3116605,Cláudio,MG,25750,2885,321375,-20.4437,-44.7673,9676007,11.2,1084089.0
3116704,Coimbra,MG,7054,1183,58386,-20.8535,-42.8008,14310221,16.8,2399914.0
3116803,Coluna,MG,9024,1154,40788,-18.2311,-42.8352,4924837,12.8,629794.0
3117108,Conceição da Aparecida,MG,9820,1232,100777,-21.096,-46.2049,9154444,12.5,1148501.0
3117306,Conceição das Alagoas,MG,23028,1888,490190,-19.9172,-48.3839,6174057,8.2,506193.0
3117504,Conceição do Mato Dentro,MG,17908,2541,155895,-19.0344,-43.4221,15855841,14.2,2249815.0
3117603,Conceição do Pará,MG,5158,799,159511,-19.7456,-44.8945,1759307,15.5,272525.0
3117702,Conceição do Rio Verde,MG,12941,1705,111534,-21.8778,-45.087,9373272,13.2,1234945.0
3117801,Conceição dos Ouros,MG,10367,1228,116202,-22.4078,-45.7996,13970630,11.8,1654860.0
3117900,Congonhal,MG,10458,1446,107962,-22.1488,-46.043,10938827,13.8,1512483.0
3118007,Congonhas,MG,48508,4581,1922674,-20.4958,-43.851,20356946,9.4,1922470.0
3118205,Conquista,MG,6526,915,117839,-19.9312,-47.5492,7995073,14.0,1120976.0
3118304,Conselheiro Lafaiete,MG,116397,13746,1129941,-20.6634,-43.7846,58950832,11.8,6961847.0
3118403,Conselheiro Pena,MG,22190,3358,159757,-19.1789,-41.4736,14422663,15.1,2182573.0
3118601,Contagem,MG,602911,55695,19142636,-19.9321,-44.0539,120798376,9.2,11158970.0
3118700,Coqueiral,MG,9289,1333,80684,-21.1858,-45.4366,5430623,14.4,779311.0
3118809,Coração de Jesus,MG,26025,3230,128519,-16.6841,-44.3635,8276776,12.4,1027243.0
3119104,Corinto,MG,23914,3174,163945,-18.369,-44.4542,8395777,13.3,1114335.0
3119203,Coroaci,MG,10270,1576,54097,-18.6156,-42.2791,5451881,15.3,836628.0
3119302,Coromandel,MG,27547,3546,479056,-18.4734,-47.1933,10375152,12.9,1335546.0
3119401,Coronel Fabriciano,MG,103584,11301,920040,-19.5179,-42.6276,24284101,10.9,2649392.0
3120201,Cristais,MG,11286,1529,91475,-20.8733,-45.5167,15892903,13.5,2153132.0
3120508,Cristina,MG,10206,1397,92542,-22.208,-45.2673,10701886,13.7,1464877.0
3120706,Cruzeiro da Fortaleza,MG,3934,496,41281,-18.944,-46.6669,1921889,12.6,242312.0
3120805,Cruzília,MG,14591,2034,105049,-21.84,-44.8067,9611095,13.9,1339796.0
3120904,Curvelo,MG,74207,9029,800197,-18.7527,-44.4303,17776619,12.2,2162937.0
3121001,Datas,MG,5211,616,25427,-18.4478,-43.6591,1773783,11.8,209682.0
3121100,Delfim Moreira,MG,7964,976,50817,-22.5036,-45.2792,5082329,12.3,622847.0
3121407,Desterro de Entre Rios,MG,7002,1265,38513,-20.665,-44.3334,9757536,18.1,1762822.0
3121605,Diamantina,MG,45854,5133,381948,-18.2413,-43.6031,24017528,11.2,2688576.0
3122009,Divino,MG,19124,2351,113316,-20.6134,-42.1438,4867522,12.3,598387.0
3122306,Divinópolis,MG,212827,23394,3417489,-20.1446,-44.8912,67884700,11.0,7461904.0
3122454,Divisópolis,MG,8974,1060,42083,-15.7254,-40.9997,1617834,11.8,191097.0
3122504,Dom Cavati,MG,5201,980,27702,-19.3735,-42.1121,5415294,18.8,1020378.0
3122702,Dom Silvério,MG,5193,1045,48994,-20.1627,-42.9627,12912111,20.1,2598335.0
3122900,Dona Eusébia,MG,6001,770,35994,-21.319,-42.807,2420377,12.8,310563.0
3123205,Dores do Indaiá,MG,13766,2530,121480,-19.4628,-45.5927,8452227,18.4,1553402.0
3123601,Elói Mendes,MG,25185,3060,312673,-21.6088,-45.5691,12191724,12.2,1481305.0
3123858,Entre Folhas,MG,5164,771,25126,-19.6218,-42.2306,2260697,14.9,337529.0
3123908,Entre Rios de Minas,MG,14242,2035,98117,-20.6706,-44.0654,11177054,14.3,1597058.0
3124005,Ervália,MG,17946,2158,150990,-20.8403,-42.6544,28499910,12.0,3427104.0
3124104,Esmeraldas,MG,60230,5452,325446,-19.764,-44.3065,10260536,9.1,928780.0
3124203,Espera Feliz,MG,22856,2641,180099,-20.6508,-41.9119,8284462,11.6,957266.0
3124302,Espinosa,MG,31113,3980,149108,-14.9249,-42.809,14243408,12.8,1822028.0
3124500,Estiva,MG,10839,1420,140890,-22.4577,-46.0191,12559054,13.1,1645342.0
3124807,Estrela do Sul,MG,7443,968,452050,-18.7399,-47.6956,6927983,13.0,901019.0
3124906,Eugenópolis,MG,10540,1676,69132,-21.1002,-42.1878,5473066,15.9,870290.0
3125101,Extrema,MG,28528,3120,1884764,-22.854,-46.3178,14698406,10.9,1607509.0
3125606,Felisburgo,MG,6875,1126,33088,-16.6348,-40.7605,1151684,16.4,188625.0
3125903,Ferros,MG,10837,1783,63308,-19.2343,-43.0192,12439858,16.5,2046717.0
3126109,Formiga,MG,65087,8774,879186,-20.4618,-45.4268,20441138,13.5,2755551.0
3126307,Fortaleza de Minas,MG,4092,607,271616,-20.8508,-46.712,5036258,14.8,747070.0
3126703,Francisco Sá,MG,24912,2754,150876,-16.4827,-43.4896,6226389,11.1,688322.0
3127008,Fronteira,MG,14031,1402,808505,-20.2748,-49.1984,5943663,10.0,593900.0
3127107,Frutal,MG,53372,6468,775521,-20.0259,-48.9355,12157273,12.1,1473305.0
3127602,Gouveia,MG,11681,1505,93093,-18.4519,-43.7423,9298276,12.9,1198006.0
3127701,Governador Valadares,MG,262569,31078,3454061,-18.8545,-41.9555,49259698,11.8,5830440.0
3127800,Grão Mogol,MG,15024,1588,204903,-16.5662,-42.8923,7042758,10.6,744402.0
3128006,Guanhães,MG,31200,3845,314400,-18.7713,-42.9312,20374998,12.3,2510957.0
3128105,Guapé,MG,13867,1823,105032,-20.7631,-45.9152,5893937,13.1,774836.0
3128204,Guaraciaba,MG,10223,1685,44386,-20.5716,-43.0094,5411967,16.5,892024.0
3128303,Guaranésia,MG,18706,2498,269425,-21.3009,-46.7964,17620647,13.4,2353062.0
3128402,Guarani,MG,8678,1430,67244,-21.3563,-43.0328,3949728,16.5,650854.0
3128600,Guarda-Mor,MG,6562,613,186764,-17.7673,-47.0998,2842696,9.3,265555.0
3128709,Guaxupé,MG,49369,6644,1002736,-21.305,-46.7081,16696558,13.5,2246996.0
3128907,Guimarânia,MG,7265,963,65724,-18.8425,-46.7901,8836738,13.3,1171339.0
3129103,Gurinhatã,MG,6137,1106,68045,-19.2143,-49.7876,1317115,18.0,237368.0
3129202,Heliodora,MG,6121,865,52137,-22.0644,-45.5453,3616017,14.1,511004.0
3129301,Iapu,MG,10310,1457,47737,-19.4387,-42.2147,7902863,14.1,1116826.0
3129509,Ibiá,MG,23179,2678,486188,-19.4749,-46.5474,9018659,11.6,1041976.0
3129707,Ibiraci,MG,12176,1201,440326,-20.4611,-47.1222,10300434,9.9,1016000.0
3129806,Ibirité,MG,158891,10583,1407025,-20.0252,-44.0569,20519093,6.7,1366683.0
3130101,Igarapé,MG,34837,3364,512940,-20.0707,-44.2994,11171849,9.7,1078798.0
3130200,Igaratinga,MG,9264,947,87147,-19.9476,-44.7063,6507195,10.2,665189.0
3130309,Iguatama,MG,8022,1087,214267,-20.1776,-45.7111,5014230,13.6,679440.0
3130705,Indianópolis,MG,6172,608,313497,-19.0341,-47.9155,3925224,9.9,386671.0
3130903,Inhapim,MG,24275,3606,140499,-19.5476,-42.1147,16145744,14.9,2398416.0
3131000,Inhaúma,MG,5757,673,58407,-19.4898,-44.3934,6416852,11.7,750137.0
3131208,Ipanema,MG,18165,2935,116596,-19.7992,-41.7164,8667537,16.2,1400453.0
3131307,Ipatinga,MG,238980,23116,7520604,-19.4703,-42.5476,72206942,9.7,6984416.0
3131505,Ipuiúna,MG,9512,1155,85474,-22.1013,-46.1915,14630740,12.1,1776546.0
3131604,Iraí de Minas,MG,6467,681,97495,-18.9819,-47.461,4779995,10.5,503352.0
3131703,Itabira,MG,109734,12165,4137155,-19.6239,-43.2312,30975877,11.1,3433954.0
3131802,Itabirinha,MG,10654,1418,53738,-18.5712,-41.234,7181460,13.3,955820.0
3131901,Itabirito,MG,45449,5050,1879339,-20.2501,-43.8038,18743210,11.1,2082625.0
3132107,Itacarambi,MG,17720,1735,101681,-15.089,-44.095,6416174,9.8,628220.0
3132206,Itaguara,MG,12367,1716,114344,-20.3947,-44.4875,16513092,13.9,2291297.0
3132305,Itaipé,MG,11798,1085,49688,-17.4014,-41.6697,2880322,9.2,264888.0
3132404,Itajubá,MG,90331,11545,1993811,-22.4225,-45.4598,38362287,12.8,4902997.0
3132503,Itamarandiba,MG,32156,3217,225983,-17.8552,-42.8561,23617753,10.0,2362804.0
3132701,Itambacuri,MG,22778,3196,160174,-18.035,-41.683,7688090,14.0,1078722.0
3132909,Itamogi,MG,10334,1381,96598,-21.0758,-47.046,9563416,13.4,1278022.0
3133006,Itamonte,MG,13985,1661,266374,-22.2859,-44.868,8646252,11.9,1026916.0
3133105,Itanhandu,MG,14149,1740,298492,-22.2942,-44.9382,15371961,12.3,1890396.0
3133204,Itanhomi,MG,11796,2012,63815,-19.1736,-41.863,17314238,17.1,2953225.0
3133303,Itaobim,MG,20968,3003,150304,-16.5571,-41.5017,7922011,14.3,1134576.0
3133402,Itapagipe,MG,13649,1911,206592,-19.9062,-49.3781,2969217,14.0,415721.0
3133501,Itapecerica,MG,21377,3586,202848,-20.4704,-45.127,15824911,16.8,2654635.0
3133600,Itapeva,MG,8647,1140,123770,-22.7665,-46.2241,4806101,13.2,633625.0
3133709,Itatiaiuçu,MG,9923,1040,975684,-20.1983,-44.4211,6814658,10.5,714224.0
3133758,Itaú de Minas,MG,14945,1865,517685,-20.7375,-46.7525,5084278,12.5,634472.0
3133808,Itaúna,MG,85411,9602,1657411,-20.0818,-44.5801,30526148,11.2,3431784.0
3134202,Ituiutaba,MG,97062,14559,1689147,-18.9772,-49.4639,17544176,15.0,2631572.0
3134400,Iturama,MG,34441,3557,1529028,-19.7276,-50.1966,7291031,10.3,753004.0
3134608,Jaboticatubas,MG,17089,2495,98447,-19.5119,-43.7373,11477091,14.6,1675659.0
3134707,Jacinto,MG,12125,1864,55576,-16.1428,-40.295,4108827,15.4,631658.0
3134806,Jacuí,MG,7495,1145,57549,-21.0137,-46.7359,7681058,15.3,1173424.0
3134905,Jacutinga,MG,22763,2830,307463,-22.286,-46.6166,12761375,12.4,1586552.0
3135050,Jaíba,MG,33587,2277,233406,-15.3432,-43.6688,4140716,6.8,280716.0
3135100,Janaúba,MG,66793,6603,490115,-15.8022,-43.3132,13826426,9.9,1366848.0
3135209,Januária,MG,65453,7857,339718,-15.4802,-44.3639,12210935,12.0,1465805.0
3135506,Jequeri,MG,12848,2098,71700,-20.4542,-42.6651,11328422,16.3,1849862.0
3135605,Jequitaí,MG,8005,1028,41793,-17.229,-44.4376,2302520,12.8,295689.0
3135803,Jequitinhonha,MG,24131,3656,109208,-16.4375,-41.0117,5100264,15.2,772722.0
3136009,Joaíma,MG,14931,2076,65481,-16.6522,-41.0229,3068240,13.9,426607.0
3136207,João Monlevade,MG,73571,9454,1697020,-19.8126,-43.1735,31669367,12.9,4069568.0
3136306,João Pinheiro,MG,45260,4683,617036,-17.7398,-46.1715,12580875,10.3,1301729.0
3136603,Nova União,MG,5555,649,40734,-19.6876,-43.583,5179061,11.7,605078.0
3136652,Juatuba,MG,22168,1947,806639,-19.9448,-44.3451,5063942,8.8,444762.0
3136702,Juiz de Fora,MG,515011,71543,9912515,-21.7595,-43.3398,159591135,13.9,22169679.0
3137007,Ladainha,MG,16982,1902,71315,-17.6279,-41.7488,4986327,11.2,558473.0
3137106,Lagamar,MG,7600,1090,80105,-18.1759,-46.8063,5384225,14.3,772211.0
3137205,Lagoa da Prata,MG,45970,4724,786659,-20.0237,-45.5401,17094840,10.3,1756711.0
3137403,Lagoa Dourada,MG,12256,1390,90793,-20.9139,-44.0797,16443280,11.3,1864895.0
3137502,Lagoa Formosa,MG,17156,2448,147431,-18.7715,-46.4012,17293844,14.3,2467669.0
3137601,Lagoa Santa,MG,52388,5558,982774,-19.6397,-43.8932,19798011,10.6,2100430.0
3137700,Lajinha,MG,19609,2374,168092,-20.1539,-41.6228,4970151,12.1,601721.0
3137809,Lambari,MG,19501,2918,179754,-21.9671,-45.3498,12192001,15.0,1824330.0
3138005,Laranjal,MG,6465,1173,45132,-21.3715,-42.4732,3750901,18.1,680558.0
3138203,Lavras,MG,91947,11382,1494002,-21.248,-45.0009,40508500,12.4,5014495.0
3138401,Leopoldina,MG,51090,7745,577377,-21.5296,-42.6421,19733211,15.2,2991461.0
3138500,Liberdade,MG,5326,859,46487,-22.0275,-44.3208,11960913,16.1,1929107.0
3138609,Lima Duarte,MG,16149,2530,120955,-21.8386,-43.7934,26415046,15.7,4138341.0
3138625,Limeira do Oeste,MG,6890,770,137010,-19.5512,-50.5815,1016312,11.2,113579.0
3138807,Luz,MG,17458,2380,243055,-19.7911,-45.6794,10353321,13.6,1411439.0
3138906,Machacalis,MG,6970,1040,35379,-17.0723,-40.7245,2606179,14.9,388870.0
3139003,Machado,MG,38678,4689,596819,-21.6778,-45.9219,15916025,12.1,1929527.0
3139201,Malacacheta,MG,18776,2578,93829,-17.8456,-42.0769,6464627,13.7,887612.0
3139300,Manga,MG,19813,2206,103264,-14.7529,-43.9391,9297606,11.1,1035205.0
3139409,Manhuaçu,MG,79547,8288,1109458,-20.2572,-42.028,20100847,10.4,2094307.0
3139508,Manhumirim,MG,21382,2579,225450,-20.3591,-41.9589,12434889,12.1,1499840.0
3139607,Mantena,MG,27052,4060,206461,-18.7761,-40.9874,9889174,15.0,1484180.0
3139706,Maravilhas,MG,7161,717,75415,-19.5076,-44.6779,4548909,10.0,455463.0
3139805,Mar de Espanha,MG,11749,1890,100180,-21.8707,-43.0062,17386905,16.1,2796940.0
3139904,Maria da Fé,MG,14209,1638,86633,-22.3044,-45.3773,10444351,11.5,1204015.0
3140001,Mariana,MG,54208,5440,3690161,-20.3765,-43.414,24035018,10.0,2412015.0
3140506,Martinho Campos,MG,12602,1844,156044,-19.3306,-45.2434,3820496,14.6,559038.0
3140555,Mata Verde,MG,7874,970,31339,-15.6869,-40.7366,1553333,12.3,191355.0
3140704,Mateus Leme,MG,27807,3157,403967,-19.9794,-44.4318,11952172,11.4,1356961.0
3140803,Matias Barbosa,MG,13430,1799,387353,-21.869,-43.3135,19420453,13.4,2601444.0
3140902,Matipó,MG,17639,1864,170545,-20.2873,-42.3401,3359774,10.6,355044.0
3141009,Mato Verde,MG,12684,1609,65688,-15.3944,-42.86,5947837,12.7,754499.0
3141108,Matozinhos,MG,33946,3368,673868,-19.5543,-44.0868,9525452,9.9,945081.0
3141405,Medina,MG,21026,3006,119038,-16.2245,-41.4728,13012805,14.3,1860387.0
3141504,Mendes Pimentel,MG,6323,1027,36865,-18.6631,-41.4052,3133742,16.2,508991.0
3141603,Mercês,MG,10362,1653,59878,-21.1976,-43.3337,12455289,16.0,1986932.0
3141801,Minas Novas,MG,30794,2662,137670,-17.2156,-42.5884,32540033,8.6,2812937.0
3142007,Mirabela,MG,13037,1608,58023,-16.256,-44.1602,5010141,12.3,617957.0
3142106,Miradouro,MG,10251,1393,90586,-20.8899,-42.3458,8696254,13.6,1181727.0
3142205,Miraí,MG,13808,1961,132579,-21.2021,-42.6122,17319165,14.2,2459653.0
3142304,Moeda,MG,4689,800,30638,-20.3399,-44.0509,11109961,17.1,1895493.0
3142403,Moema,MG,7025,937,45123,-19.8387,-45.4127,3202672,13.3,427175.0
3142601,Monsenhor Paulo,MG,8158,1036,115169,-21.7579,-45.5391,3595970,12.7,456659.0
3142700,Montalvânia,MG,15862,2138,80864,-14.4197,-44.3719,6206565,13.5,836568.0
3142809,Monte Alegre de Minas,MG,19619,2906,265414,-18.869,-48.881,9137172,14.8,1353414.0
3142908,Monte Azul,MG,21994,3242,99934,-15.1514,-42.8718,10325522,14.7,1522022.0
3143005,Monte Belo,MG,13061,1802,149193,-21.3271,-46.3635,10418688,13.8,1437446.0
3143104,Monte Carmelo,MG,45740,4757,743440,-18.7302,-47.4912,13833601,10.4,1438707.0
3143203,Monte Santo de Minas,MG,21234,3405,223710,-21.1873,-46.9753,15927812,16.0,2554121.0
3143302,Montes Claros,MG,361623,33718,4843675,-16.7282,-43.8578,53617285,9.3,4999316.0
3143401,Monte Sião,MG,21182,2456,237578,-22.4335,-46.573,15289610,11.6,1772792.0
3143500,Morada Nova de Minas,MG,8255,1028,93114,-18.5998,-45.3584,4334666,12.5,539799.0
3143807,Munhoz,MG,6236,712,34383,-22.6092,-46.362,11854196,11.4,1353462.0
3143906,Muriaé,MG,100747,13408,1218095,-21.13,-42.3693,28387152,13.3,3777928.0
3144003,Mutum,MG,26627,3717,180738,-19.8121,-41.4407,6524843,14.0,910836.0
3144102,Muzambinho,MG,20421,2869,224215,-21.3692,-46.5213,10562423,14.0,1483943.0
3144300,Nanuque,MG,40817,5641,525635,-17.8481,-40.3533,7644749,13.8,1056521.0
3144409,Natércia,MG,4658,855,40890,-22.1158,-45.5123,6552213,18.4,1202693.0
3144508,Nazareno,MG,7949,928,101931,-21.2168,-44.6138,5933822,11.7,692740.0
3144607,Nepomuceno,MG,25733,3412,227755,-21.2324,-45.235,7319081,13.3,970454.0
3144706,Nova Era,MG,17523,2247,273507,-19.7577,-43.0333,23035744,12.8,2953907.0
3144805,Nova Lima,MG,80710,8762,5382564,-19.9758,-43.8509,25835620,10.9,2804754.0
3145000,Nova Ponte,MG,12807,1060,617922,-19.1461,-47.6779,5498720,8.3,455114.0
3145109,Nova Resende,MG,15362,1793,173609,-21.1286,-46.4157,8916263,11.7,1040676.0
3145208,Nova Serrana,MG,73689,3337,1010516,-19.8713,-44.9847,25990523,4.5,1176979.0
3145307,Novo Cruzeiro,MG,30725,3359,112678,-17.4654,-41.8826,12286072,10.9,1343171.0
3145604,Oliveira,MG,39432,5434,434492,-20.6982,-44.829,20504479,13.8,2825658.0
3145901,Ouro Branco,MG,35217,2599,2047668,-20.5263,-43.6962,27943327,7.4,2062206.0
3146008,Ouro Fino,MG,31555,4940,398544,-22.2779,-46.3716,15746101,15.7,2465084.0
3146107,Ouro Preto,MG,70182,8238,3713842,-20.3796,-43.512,27499567,11.7,3227914.0
3146305,Padre Paraíso,MG,18828,2676,94996,-17.0758,-41.4821,6535847,14.2,928932.0
3146503,Pains,MG,8005,1135,162196,-20.3705,-45.6627,7001880,14.2,992771.0
3146701,Palma,MG,6545,1123,38381,-21.3748,-42.3123,3505353,17.2,601453.0
3146750,Palmópolis,MG,6931,1015,25199,-16.7364,-40.4296,1802973,14.6,264034.0
3146909,Papagaios,MG,14166,1143,160379,-19.4419,-44.7468,3348916,8.1,270211.0
3147006,Paracatu,MG,84598,6656,1701105,-17.2252,-46.8711,15863277,7.9,1248091.0
3147105,Pará de Minas,MG,84170,9272,1577111,-19.8534,-44.6114,32822502,11.0,3615662.0
3147204,Paraguaçu,MG,20203,3056,266339,-21.5465,-45.7374,11432288,15.1,1729301.0
3147303,Paraisópolis,MG,19369,2619,309859,-22.5539,-45.7803,12461374,13.5,1684978.0
3147402,Paraopeba,MG,22563,2120,289500,-19.2732,-44.4044,10738749,9.4,1009004.0
3147600,Passa Quatro,MG,15570,1862,214362,-22.3871,-44.9709,11439158,12.0,1367997.0
3147709,Passa Tempo,MG,8197,1327,94413,-20.6539,-44.4926,12277571,16.2,1987598.0
3147907,Passos,MG,106260,13628,1408579,-20.7193,-46.609,26094090,12.8,3346605.0
3148004,Patos de Minas,MG,138540,16892,1996955,-18.5699,-46.5013,28938247,12.2,3528402.0
3148103,Patrocínio,MG,82424,8696,1282275,-18.9379,-46.9934,18621336,10.6,1964611.0
3148301,Paula Cândido,MG,9271,1383,47334,-20.8754,-42.9752,7206042,14.9,1074960.0
3148509,Pavão,MG,8583,1342,42179,-17.4267,-41.0035,4646036,15.6,726434.0
3148608,Peçanha,MG,17260,2298,101352,-18.5441,-42.5583,15367836,13.3,2046077.0
3148707,Pedra Azul,MG,23826,2797,136505,-16.0086,-41.2909,5754861,11.7,675579.0
3149101,Pedralva,MG,11462,1557,76794,-22.2386,-45.4654,17852770,13.6,2425123.0
3149309,Pedro Leopoldo,MG,58704,6490,1134938,-19.6308,-44.0383,16368251,11.1,1809586.0
